,名称,大类,中类,小类,省,市,区,经度,纬度
0,广州银行(花都支行),金融保险服务,银行,银行,广东省,广州市,花都区,113.234071,23.401739
1,中国农业银行(曙光路支行),金融保险服务,银行,中国农业银行,广东省,广州市,花都区,113.227678,23.40225
2,中国工商银行(广州花都雅居乐支行),金融保险服务,银行,中国工商银行,广东省,广州市,花都区,113.233358,23.400324
3,广州农商银行(三东分理处),金融保险服务,银行,广州农商银行,广东省,广州市,花都区,113.232081,23.410088
4,中国建设银行(广州花都分行),金融保险服务,银行,中国建设银行,广东省,广州市,花都区,113.233503,23.402441
5,交通银行(广州花都支行),金融保险服务,银行,交通银行,广东省,广州市,花都区,113.230845,23.397139
6,广州农商银行(公益路支行),金融保险服务,银行,广州农商银行,广东省,广州市,花都区,113.217697,23.398071
7,中国光大银行(广州花都支行),金融保险服务,银行,中国光大银行,广东省,广州市,花都区,113.233568,23.405282
8,中国建设银行(花都锦东支行),金融保险服务,银行,中国建设银行,广东省,广州市,花都区,113.228626,23.405366
9,招商银行(广州花都支行),金融保险服务,银行,招商银行,广东省,广州市,花都区,113.234108,23.400358
10,中国银行(广州花都迎宾大道支行),金融保险服务,银行,中国银行,广东省,广州市,花都区,113.234089,23.402792
11,中国工商银行(广州紫薇支行),金融保险服务,银行,中国工商银行,广东省,广州市,花都区,113.223971,23.405209
12,交通银行(锦东花园支行),金融保险服务,银行,交通银行,广东省,广州市,花都区,113.23015,23.40524
13,中国银行(广州花都紫薇路支行),金融保险服务,银行,中国银行,广东省,广州市,花都区,113.225901,23.405108
14,中国农业银行(花都名门支行),金融保险服务,银行,中国农业银行,广东省,广州市,花都区,113.222739,23.410241
15,中信银行(花都支行)(装修中),金融保险服务,银行,中信银行,广东省,广州市,花都区,113.22812,23.400686
16,九江银行(花都支行),金融保险服务,银行,银行,广东省,广州市,花都区,113.232966,23.401471
17,平安银行(广州花都支行),金融保险服务,金融保险服务机构,金融保险机构,广东省,广州市,花都区,113.243313,23.395545
18,中国邮政储蓄银行(花都支行),金融保险服务,金融保险服务机构,金融保险机构,广东省,广州市,花都区,113.223695,23.400895
19,中国工商银行(广州花都分行),金融保险服务,金融保险服务机构,金融保险机构,广东省,广州市,花都区,113.227416,23.401812
20,广州农商银行(紫薇路支行),金融保险服务,金融保险服务机构,金融保险机构,广东省,广州市,花都区,113.231416,23.404753
21,广州农商银行(正盛支行),金融保险服务,金融保险服务机构,金融保险机构,广东省,广州市,花都区,113.223583,23.400903
22,华夏银行(广州花都支行),金融保险服务,金融保险服务机构,金融保险机构,广东省,广州市,花都区,113.233389,23.405121
23,中国民生银行(广州花都支行),金融保险服务,金融保险服务机构,金融保险机构,广东省,广州市,花都区,113.233079,23.401469
24,广州农商银行(长岗分理处),金融保险服务,金融保险服务机构,金融保险机构,广东省,广州市,花都区,113.227554,23.437112
25,广发银行(宝华路支行),金融保险服务,金融保险服务机构,金融保险机构,广东省,广州市,花都区,113.206658,23.386461
26,上海浦东发展银行(花都支行),金融保险服务,金融保险服务机构,金融保险机构,广东省,广州市,花都区,113.222669,23.400863
27,中国邮政储蓄银行(旗岭大街营业所),金融保险服务,金融保险服务机构,金融保险机构,广东省,广州市,花都区,113.220291,23.469902
28,中国工商银行ATM,金融保险服务,银行,中国工商银行,广东省,广州市,花都区,113.220197,23.469956
29,广州农商银行(旗岭支行),金融保险服务,金融保险服务机构,金融保险机构,广东省,广州市,花都区,113.227401,23.469651
30,中国农业发展银行(花都支行),金融保险服务,金融保险服务机构,金融保险机构,广东省,广州市,花都区,113.206653,23.392553
31,中国邮政储蓄银行(装修中),金融保险服务,金融保险服务机构,金融保险机构,广东省,广州市,花都区,113.217154,23.406134
32,广发银行(新华支行),金融保险服务,金融保险服务机构,金融保险机构,广东省,广州市,花都区,113.23412,23.403146
33,中国工商银行(公益大道支行),金融保险服务,金融保险服务机构,金融保险机构,广东省,广州市,花都区,113.217715,23.398832
34,中国建设银行(广州高晟广场支行),金融保险服务,金融保险服务机构,金融保险机构,广东省,广州市,花都区,113.245341,23.390469
35,中国工商银行(绿色金融街支行),金融保险服务,金融保险服务机构,金融保险机构,广东省,广州市,花都区,113.245184,23.390907
36,中国邮政储蓄银行ATM,金融保险服务,金融保险服务机构,金融保险机构,广东省,广州市,花都区,113.223656,23.400839
37,中国光大银行信用卡办理处,金融保险服务,金融保险服务机构,金融保险机构,广东省,广州市,花都区,113.226742,23.405557
38,中国银行(广州花都支行),金融保险服务,金融保险服务机构,金融保险机构,广东省,广州市,花都区,113.209697,23.375926
39,中国银行(广州花都银燕支行),金融保险服务,金融保险服务机构,金融保险机构,广东省,广州市,花都区,113.217379,23.394094
40,中国建设银行(广州天贵支行),金融保险服务,金融保险服务机构,金融保险机构,广东省,广州市,花都区,113.222272,23.391806
41,广州银行(迎宾大道支行),金融保险服务,金融保险服务机构,金融保险机构,广东省,广州市,花都区,113.24572,23.389057
42,广州花都稠州村镇银行(建设路支行),金融保险服务,金融保险服务机构,金融保险机构,广东省,广州市,花都区,113.211746,23.416319
43,中国农业银行(绿色金融改革创新试验区花都分行),金融保险服务,金融保险服务机构,金融保险机构,广东省,广州市,花都区,113.204876,23.393171
44,兴业银行(花都支行),金融保险服务,金融保险服务机构,金融保险机构,广东省,广州市,花都区,113.223291,23.400848
45,中国建设银行(广州花都钻石商务大厦支行),金融保险服务,金融保险服务机构,金融保险机构,广东省,广州市,花都区,113.217702,23.39852
46,广州农商银行(凤华支行),金融保险服务,金融保险服务机构,金融保险机构,广东省,广州市,花都区,113.204942,23.389746
47,中国邮政储蓄银行(松园路营业所),金融保险服务,金融保险服务机构,金融保险机构,广东省,广州市,花都区,113.204332,23.394317
48,中国银行(茶园路支行),金融保险服务,金融保险服务机构,金融保险机构,广东省,广州市,花都区,113.216635,23.386501
49,广州农商银行(龙湖分理处),金融保险服务,金融保险服务机构,金融保险机构,广东省,广州市,白云区,113.227218,23.25392
50,中国工商银行(江村支行),金融保险服务,金融保险服务机构,金融保险机构,广东省,广州市,白云区,113.230263,23.272927
51,中国农业银行(广州均禾支行),金融保险服务,金融保险服务机构,金融保险机构,广东省,广州市,白云区,113.257135,23.245859
52,中国农业银行(江高支行),金融保险服务,金融保险服务机构,金融保险机构,广东省,广州市,白云区,113.230181,23.27521
53,广州农商银行(平沙支行),金融保险服务,金融保险服务机构,金融保险机构,广东省,广州市,白云区,113.256676,23.247065
54,广州农商银行(大朗支行),金融保险服务,银行,农村商业银行,广东省,广州市,白云区,113.240327,23.23873
55,广州农商银行(嘉禾支行),金融保险服务,金融保险服务机构,金融保险机构,广东省,广州市,白云区,113.273801,23.230742
56,中国建设银行(广州江高支行),金融保险服务,金融保险服务机构,金融保险机构,广东省,广州市,白云区,113.231202,23.275435
57,中国银行(江高支行),金融保险服务,金融保险服务机构,金融保险机构,广东省,广州市,白云区,113.231605,23.275385
58,中国邮政储蓄银行(嘉禾分行),金融保险服务,金融保险服务机构,金融保险机构,广东省,广州市,白云区,113.272856,23.230738
59,24小时广州衣商银行,金融保险服务,金融保险服务机构,金融保险机构,广东省,广州市,白云区,113.230661,23.273132
60,广州农商银行(均禾支行),金融保险服务,金融保险服务机构,金融保险机构,广东省,广州市,白云区,113.251266,23.254258
61,中国邮政储蓄银行(江高邮局营业部),金融保险服务,金融保险服务机构,金融保险机构,广东省,广州市,白云区,113.231263,23.273141
62,中国工商银行(均禾支行),金融保险服务,金融保险服务机构,金融保险机构,广东省,广州市,白云区,113.270019,23.255492
63,中国银行ATM,金融保险服务,金融保险服务机构,金融保险机构,广东省,广州市,白云区,113.254245,23.240425
64,广州农商银行(江村支行),金融保险服务,金融保险服务机构,金融保险机构,广东省,广州市,白云区,113.234102,23.275725
65,广州农商银行(朝阳支行),金融保险服务,金融保险服务机构,金融保险机构,广东省,广州市,白云区,113.209747,23.22214
66,中国邮政储蓄银行ATM,金融保险服务,金融保险服务机构,金融保险机构,广东省,广州市,白云区,113.231085,23.273211
67,广州农商银行(江高支行),金融保险服务,金融保险服务机构,金融保险机构,广东省,广州市,白云区,113.230633,23.273146
68,交通银行ATM(广州富力城支行),金融保险服务,金融保险服务机构,金融保险机构,广东省,广州市,白云区,113.263117,23.246817
69,广州农商银行(南岗支行),金融保险服务,金融保险服务机构,金融保险机构,广东省,广州市,白云区,113.206392,23.246706
70,交通银行(广州富力城支行),金融保险服务,金融保险服务机构,金融保险机构,广东省,广州市,白云区,113.263263,23.24689
71,广州农商银行(双岗分理处),金融保险服务,金融保险服务机构,金融保险机构,广东省,广州市,白云区,113.230419,23.325227
72,广州农商银行(东镜支行),金融保险服务,金融保险服务机构,金融保险机构,广东省,广州市,花都区,113.230798,23.340609
73,广州白云民泰村镇银行(水沥分行),金融保险服务,金融保险服务机构,金融保险机构,广东省,广州市,白云区,113.23666,23.311689
74,中国工商银行ATM,金融保险服务,金融保险服务机构,金融保险机构,广东省,广州市,花都区,113.249999,23.349854
75,广发银行(花都支行),金融保险服务,金融保险服务机构,金融保险机构,广东省,广州市,花都区,113.262231,23.368432
76,中国银行(镜湖大道支行),金融保险服务,金融保险服务机构,金融保险机构,广东省,广州市,花都区,113.250746,23.362069
77,花都稠州村镇银行(东镜服务站),金融保险服务,金融保险服务机构,金融保险机构,广东省,广州市,花都区,113.231084,23.341364
78,广州农商银行(水沥分理处),金融保险服务,金融保险服务机构,金融保险机构,广东省,广州市,白云区,113.235339,23.310009
79,中国农业银行(广州花都镜湖大道支行),金融保险服务,金融保险服务机构,金融保险机构,广东省,广州市,花都区,113.250919,23.361342
80,中国农业银行(蚌湖支行),金融保险服务,金融保险服务机构,金融保险机构,广东省,广州市,白云区,113.26121,23.29681
81,广州农商银行(大岭支行),金融保险服务,金融保险服务机构,金融保险机构,广东省,广州市,白云区,113.201191,23.35194
82,广州农商银行(西湖支行),金融保险服务,金融保险服务机构,金融保险机构,广东省,广州市,白云区,113.259366,23.295418
83,广州农商银行(狮城分理处),金融保险服务,金融保险服务机构,金融保险机构,广东省,广州市,花都区,113.251243,23.35946
84,中国建设银行(空港经济区支行),金融保险服务,金融保险服务机构,金融保险机构,广东省,广州市,花都区,113.261439,23.369132
85,广州农商银行(雅瑶支行),金融保险服务,金融保险服务机构,金融保险机构,广东省,广州市,花都区,113.218308,23.359533
86,广州农商银行(横沥分理处),金融保险服务,金融保险服务机构,金融保险机构,广东省,广州市,白云区,113.265279,23.337692
87,广州农商业银行(塘贝分理处),金融保险服务,金融保险服务机构,金融保险机构,广东省,广州市,白云区,113.234834,23.299644
88,中国银行广州空港经济区支行,金融保险服务,金融保险服务机构,金融保险机构,广东省,广州市,花都区,113.261641,23.369626
89,中国银行,金融保险服务,金融保险服务机构,金融保险机构,广东省,广州市,花都区,113.250772,23.362223
90,中国农业银行(广州花都雅源中路支行),金融保险服务,金融保险服务机构,金融保险机构,广东省,广州市,花都区,113.219591,23.358296
91,广州农商银行ATM(塘贝分理处),金融保险服务,金融保险服务机构,金融保险机构,广东省,广州市,白云区,113.234834,23.299644
92,中国邮政储蓄银行银行卡助农取款服务点,金融保险服务,金融保险服务机构,金融保险机构,广东省,广州市,花都区,113.219048,23.358985
93,广州农商银行(中市分理处),金融保险服务,金融保险服务机构,金融保险机构,广东省,广州市,荔湾区,113.237599,23.093616
94,中国建设银行(广州芳村支行),金融保险服务,金融保险服务机构,金融保险机构,广东省,广州市,荔湾区,113.232829,23.091747
95,中国工商银行(芳村支行),金融保险服务,金融保险服务机构,金融保险机构,广东省,广州市,荔湾区,113.233415,23.088808
96,中国农业银行(花地湾支行),金融保险服务,金融保险服务机构,金融保险机构,广东省,广州市,荔湾区,113.231627,23.090684
97,中国建设银行(广州鹤洞支行),金融保险服务,金融保险服务机构,金融保险机构,广东省,广州市,荔湾区,113.242472,23.092456
98,中国工商银行(广州冲口支行),金融保险服务,金融保险服务机构,金融保险机构,广东省,广州市,荔湾区,113.242908,23.091689
99,中国邮政储蓄银行(芳村大道东支行),金融保险服务,金融保险服务机构,金融保险机构,广东省,广州市,荔湾区,113.24122,23.09401
100,中国民生银行(广州芳村支行),金融保险服务,金融保险服务机构,金融保险机构,广东省,广州市,荔湾区,113.233306,23.092593
101,中国银行(广州茶窖支行),金融保险服务,金融保险服务机构,金融保险机构,广东省,广州市,荔湾区,113.23088,23.0908
102,中国邮政储蓄银行区域信贷中心,金融保险服务,金融保险服务机构,金融保险机构,广东省,广州市,荔湾区,113.234395,23.094188
103,中国邮政储蓄银行(花地大道北支行),金融保险服务,金融保险服务机构,金融保险机构,广东省,广州市,荔湾区,113.234322,23.094007
104,广州农商银行(花地支行),金融保险服务,金融保险服务机构,金融保险机构,广东省,广州市,荔湾区,113.233479,23.093712
105,中国建设银行广州荔湾支行芳村支行-母婴室,金融保险服务,金融保险服务机构,金融保险机构,广东省,广州市,荔湾区,113.232779,23.091627
106,广发银行(沙面支行),金融保险服务,金融保险服务机构,金融保险机构,广东省,广州市,荔湾区,113.243227,23.108044
107,广州银行(芳村支行),金融保险服务,金融保险服务机构,金融保险机构,广东省,广州市,荔湾区,113.225397,23.077945
108,中国建设银行(芳村大道支行),金融保险服务,金融保险服务机构,金融保险机构,广东省,广州市,荔湾区,113.232802,23.101018
109,台湾银行广州支行(日),金融保险服务,金融保险服务机构,金融保险机构,广东省,广州市,荔湾区,113.246734,23.10731
110,交通银行(广州芳村支行),金融保险服务,金融保险服务机构,金融保险机构,广东省,广州市,荔湾区,113.230898,23.082756
111,广州农商银行(芳村支行),金融保险服务,金融保险服务机构,金融保险机构,广东省,广州市,荔湾区,113.233727,23.074799
112,中国工商银行(茶滘支行),金融保险服务,金融保险服务机构,金融保险机构,广东省,广州市,荔湾区,113.229509,23.091842
113,中国工商银行ATM(明心路),金融保险服务,金融保险服务机构,金融保险机构,广东省,广州市,荔湾区,113.239906,23.098527
114,广发银行(江南西支行),金融保险服务,金融保险服务机构,金融保险机构,广东省,广州市,海珠区,113.270125,23.094658
115,广州农商银行(茶滘支行),金融保险服务,金融保险服务机构,金融保险机构,广东省,广州市,荔湾区,113.229581,23.090194
116,中国工商银行(恒荔湾畔支行),金融保险服务,金融保险服务机构,金融保险机构,广东省,广州市,荔湾区,113.232867,23.100918
117,中国建设银行(广州海珠支行),金融保险服务,金融保险服务机构,金融保险机构,广东省,广州市,海珠区,113.262171,23.102091
118,中国银行(白天鹅宾馆支行),金融保险服务,金融保险服务机构,金融保险机构,广东省,广州市,荔湾区,113.242916,23.105973
119,平安银行(广州黄沙支行),金融保险服务,金融保险服务机构,金融保险机构,广东省,广州市,荔湾区,113.239,23.111345
120,中国银行(汾水支行),金融保险服务,金融保险服务机构,金融保险机构,广东省,广州市,荔湾区,113.225707,23.083856
121,中国农业银行(革新路支行),金融保险服务,金融保险服务机构,金融保险机构,广东省,广州市,海珠区,113.253413,23.092455
122,中国工商银行(工业大道支行),金融保险服务,金融保险服务机构,金融保险机构,广东省,广州市,海珠区,113.254567,23.096917
123,中国工商银行ATM,金融保险服务,金融保险服务机构,金融保险机构,广东省,广州市,荔湾区,113.232864,23.100788
124,广州银行(花地大道北支行),金融保险服务,金融保险服务机构,金融保险机构,广东省,广州市,荔湾区,113.233227,23.092132
125,广州银行(海珠支行),金融保险服务,金融保险服务机构,金融保险机构,广东省,广州市,海珠区,113.266563,23.092538
126,中国工商银行(沙面支行),金融保险服务,金融保险服务机构,金融保险机构,广东省,广州市,荔湾区,113.243231,23.107813
127,交通银行(南方茶市支行),金融保险服务,金融保险服务机构,金融保险机构,广东省,广州市,荔湾区,113.223003,23.102162
128,广州农商银行(江南西支行),金融保险服务,金融保险服务机构,金融保险机构,广东省,广州市,海珠区,113.268782,23.095585
129,广州银行(越秀支行),金融保险服务,金融保险服务机构,金融保险机构,广东省,广州市,越秀区,113.262724,23.121673
130,广州农商银行(葵蓬支行),金融保险服务,金融保险服务机构,金融保险机构,广东省,广州市,荔湾区,113.221076,23.095772
131,中国工商银行(广州上步支行),金融保险服务,金融保险服务机构,金融保险机构,广东省,广州市,白云区,113.236265,23.172572
132,中国银行(广州横滘支行),金融保险服务,金融保险服务机构,金融保险机构,广东省,广州市,白云区,113.236005,23.173703
133,广州农商银行(横滘支行),金融保险服务,金融保险服务机构,金融保险机构,广东省,广州市,白云区,113.238475,23.173449
134,中国农业银行(同德支行),金融保险服务,金融保险服务机构,金融保险机构,广东省,广州市,白云区,113.235975,23.170095
135,中国工商银行ATM,金融保险服务,金融保险服务机构,金融保险机构,广东省,广州市,白云区,113.236275,23.172596
136,广州白云民泰村镇银行(西槎路),金融保险服务,金融保险服务机构,金融保险机构,广东省,广州市,白云区,113.235966,23.173242
137,中国工商银行(江南市场支行),金融保险服务,金融保险服务机构,金融保险机构,广东省,广州市,白云区,113.22628,23.176662
138,上海浦东发展银行(白云支行),金融保险服务,金融保险服务机构,金融保险机构,广东省,广州市,白云区,113.252312,23.17231
139,广州农商银行(同德分理处),金融保险服务,金融保险服务机构,金融保险机构,广东省,广州市,白云区,113.238164,23.169327
140,中国农业银行(广州槎头支行),金融保险服务,金融保险服务机构,金融保险机构,广东省,广州市,白云区,113.229789,23.182319
141,广发银行(白云机场支行),金融保险服务,金融保险服务机构,金融保险机构,广东省,广州市,白云区,113.259389,23.175463
142,招商银行(广州机场路支行),金融保险服务,金融保险服务机构,金融保险机构,广东省,广州市,白云区,113.259338,23.174355
143,兴业银行(白云支行),金融保险服务,金融保险服务机构,金融保险机构,广东省,广州市,白云区,113.256356,23.172182
144,中国农业银行(广州江南果菜批发市场支行),金融保险服务,金融保险服务机构,金融保险机构,广东省,广州市,白云区,113.22611,23.173785
145,广州银行(机场路支行),金融保险服务,金融保险服务机构,金融保险机构,广东省,广州市,白云区,113.262563,23.162395
146,中国邮政储蓄银行(增槎路支行),金融保险服务,金融保险服务机构,金融保险机构,广东省,广州市,白云区,113.225259,23.17551
147,中国工商银行(同德支行),金融保险服务,金融保险服务机构,金融保险机构,广东省,广州市,白云区,113.234707,23.15898
148,交通银行(广州金迪支行),金融保险服务,金融保险服务机构,金融保险机构,广东省,广州市,白云区,113.256409,23.170284
149,广州银行(站西支行),金融保险服务,金融保险服务机构,金融保险机构,广东省,广州市,越秀区,113.249006,23.149904
150,中国建设银行(广州同德围支行),金融保险服务,金融保险服务机构,金融保险机构,广东省,广州市,白云区,113.236367,23.158566
151,广州农商银行(西城支行),金融保险服务,金融保险服务机构,金融保险机构,广东省,广州市,白云区,113.223021,23.153226
152,广州农商银行(沙涌北分理处),金融保险服务,金融保险服务机构,金融保险机构,广东省,广州市,白云区,113.251502,23.16859
153,交通银行(兰天支行),金融保险服务,金融保险服务机构,金融保险机构,广东省,广州市,白云区,113.260391,23.172215
154,浦发银行(江南市场小微支行),金融保险服务,金融保险服务机构,金融保险机构,广东省,广州市,白云区,113.230467,23.171665
155,中国民生银行(白云支行),金融保险服务,金融保险服务机构,金融保险机构,广东省,广州市,白云区,113.259816,23.178833
156,中国银行(远景路支行),金融保险服务,金融保险服务机构,金融保险机构,广东省,广州市,白云区,113.25676,23.172115
157,中国民生银行ATM,金融保险服务,金融保险服务机构,金融保险机构,广东省,广州市,白云区,113.240049,23.183891
158,中国农业银行(广州机场路支行),金融保险服务,金融保险服务机构,金融保险机构,广东省,广州市,白云区,113.260118,23.174584
159,中国银行(时代花园支行),金融保险服务,金融保险服务机构,金融保险机构,广东省,广州市,白云区,113.255654,23.176215
160,中国农业银行(白云支行),金融保险服务,金融保险服务机构,金融保险机构,广东省,广州市,白云区,113.257838,23.16784
161,中国工商银行(广州乐嘉路支行),金融保险服务,金融保险服务机构,金融保险机构,广东省,广州市,白云区,113.258396,23.168333
162,广州农商银行(萧岗支行),金融保险服务,金融保险服务机构,金融保险机构,广东省,广州市,白云区,113.266143,23.19025
163,广州农商银行(三元里支行),金融保险服务,金融保险服务机构,金融保险机构,广东省,广州市,白云区,113.261585,23.157472
164,广州农商银行(棠溪支行),金融保险服务,银行,农村商业银行,广东省,广州市,白云区,113.250274,23.179808
165,中国农业银行(新市支行),金融保险服务,金融保险服务机构,金融保险机构,广东省,广州市,白云区,113.260649,23.18873
166,中国邮政储蓄银行(机场路营业所)(暂停营业),金融保险服务,金融保险服务机构,金融保险机构,广东省,广州市,白云区,113.255851,23.167813
167,交通银行(广州大石支行),金融保险服务,金融保险服务机构,金融保险机构,广东省,广州市,番禺区,113.313883,23.014504
168,中国建设银行(大石支行),金融保险服务,金融保险服务机构,金融保险机构,广东省,广州市,番禺区,113.314554,23.01794
169,广发银行(华南支行),金融保险服务,金融保险服务机构,金融保险机构,广东省,广州市,番禺区,113.311036,23.026737
170,中国工商银行(广州南大路支行),金融保险服务,金融保险服务机构,金融保险机构,广东省,广州市,番禺区,113.313076,23.013318
171,九江银行(广州番禺支行),金融保险服务,金融保险服务机构,金融保险机构,广东省,广州市,番禺区,113.313882,23.014428
172,中国银行(大石支行),金融保险服务,金融保险服务机构,金融保险机构,广东省,广州市,番禺区,113.316077,23.026837
173,中国农业银行(番禺大石支行),金融保险服务,金融保险服务机构,金融保险机构,广东省,广州市,番禺区,113.311307,23.024873
174,中国工商银行(广州大石支行),金融保险服务,金融保险服务机构,金融保险机构,广东省,广州市,番禺区,113.310665,23.024776
175,中国银行(广州番禺洛溪支行),金融保险服务,金融保险服务机构,金融保险机构,广东省,广州市,番禺区,113.303859,23.040965
176,广州农商银行(万盛名家支行),金融保险服务,金融保险服务机构,金融保险机构,广东省,广州市,番禺区,113.312614,23.012744
177,中国邮政储蓄银行(大石支行),金融保险服务,金融保险服务机构,金融保险机构,广东省,广州市,番禺区,113.312151,23.021327
178,广州农商银行(大石支行),金融保险服务,金融保险服务机构,金融保险机构,广东省,广州市,番禺区,113.307644,23.024336
179,中国邮政储蓄银行(大石朝阳营业所),金融保险服务,金融保险服务机构,金融保险机构,广东省,广州市,番禺区,113.318974,23.027085
180,广州农商银行(会江支行)(装修中),金融保险服务,金融保险服务机构,金融保险机构,广东省,广州市,番禺区,113.296086,23.009212
181,中国工商银行(广州朝阳支行),金融保险服务,金融保险服务机构,金融保险机构,广东省,广州市,番禺区,113.324427,23.026876
182,广发银行(广州汉溪支行),金融保险服务,金融保险服务机构,金融保险机构,广东省,广州市,番禺区,113.33325,22.995171
183,中国邮政储蓄银行(大石城西营业所),金融保险服务,金融保险服务机构,金融保险机构,广东省,广州市,番禺区,113.305914,23.023281
184,中国农业银行(朝阳东路分行),金融保险服务,金融保险服务机构,金融保险机构,广东省,广州市,番禺区,113.324739,23.026466
185,广州农商银行ATM(主人花园南),金融保险服务,金融保险服务机构,金融保险机构,广东省,广州市,番禺区,113.316122,23.007706
186,中国银行(广州番禺星河湾支行),金融保险服务,金融保险服务机构,金融保险机构,广东省,广州市,番禺区,113.330612,23.026618
187,平安银行(广州星河湾社区支行),金融保险服务,金融保险服务机构,金融保险机构,广东省,广州市,番禺区,113.330335,23.027422
188,中国建设银行(番禺新城支行),金融保险服务,金融保险服务机构,金融保险机构,广东省,广州市,番禺区,113.329634,23.025853
189,广发银行(万博支行),金融保险服务,金融保险服务机构,金融保险机构,广东省,广州市,番禺区,113.351047,23.011801
190,中国工商银行(保利大都汇支行),金融保险服务,金融保险服务机构,金融保险机构,广东省,广州市,番禺区,113.334461,22.994764
191,中国工商银行(广州华南支行),金融保险服务,金融保险服务机构,金融保险机构,广东省,广州市,番禺区,113.340616,23.010049
192,广州市农村商业银行ATM(河村分理处),金融保险服务,金融保险服务机构,金融保险机构,广东省,广州市,番禺区,113.334288,23.01252
193,中国建设银行(沙溪支行),金融保险服务,金融保险服务机构,金融保险机构,广东省,广州市,番禺区,113.334021,23.035131
194,中国银行(海珠支行),金融保险服务,金融保险服务机构,金融保险机构,广东省,广州市,海珠区,113.315504,23.086268
195,中国农业银行(广州海珠支行),金融保险服务,金融保险服务机构,金融保险机构,广东省,广州市,海珠区,113.316442,23.087374
196,浙商银行(广州分行),金融保险服务,金融保险服务机构,金融保险机构,广东省,广州市,海珠区,113.316595,23.085049
197,中国工商银行(广州大道支行),金融保险服务,金融保险服务机构,金融保险机构,广东省,广州市,海珠区,113.315977,23.093307
198,中国建设银行(广州赤岗支行),金融保险服务,金融保险服务机构,金融保险机构,广东省,广州市,海珠区,113.324578,23.09595
199,平安银行(广州新港中路支行),金融保险服务,金融保险服务机构,金融保险机构,广东省,广州市,海珠区,113.32302,23.096813
200,交通银行(广州新港支行),金融保险服务,金融保险服务机构,金融保险机构,广东省,广州市,海珠区,113.322095,23.096502
201,广州银行(赤岗支行),金融保险服务,金融保险服务机构,金融保险机构,广东省,广州市,海珠区,113.324089,23.096044
202,中国农业银行(新港中路支行),金融保险服务,金融保险服务机构,金融保险机构,广东省,广州市,海珠区,113.325339,23.095955
203,招商银行(广州赤岗北路支行),金融保险服务,金融保险服务机构,金融保险机构,广东省,广州市,海珠区,113.32761,23.097144
204,中国工商银行(鹭江支行),金融保险服务,金融保险服务机构,金融保险机构,广东省,广州市,海珠区,113.311891,23.095334
205,广州农商银行(广州大道南支行),金融保险服务,金融保险服务机构,金融保险机构,广东省,广州市,海珠区,113.31641,23.088165
206,广州银行(敦和支行),金融保险服务,金融保险服务机构,金融保险机构,广东省,广州市,海珠区,113.316331,23.08892
207,中国工商银行(丽影华庭支行),金融保险服务,金融保险服务机构,金融保险机构,广东省,广州市,海珠区,113.32259,23.095899
208,中国工商银行(广州穗和支行),金融保险服务,金融保险服务机构,金融保险机构,广东省,广州市,海珠区,113.316551,23.08646
209,中国建设银行(广州大道南路支行),金融保险服务,金融保险服务机构,金融保险机构,广东省,广州市,海珠区,113.316512,23.086877
210,中国建设银行(广州鹭江支行),金融保险服务,金融保险服务机构,金融保险机构,广东省,广州市,海珠区,113.311618,23.095884
211,中国银行(广州珠影支行),金融保险服务,金融保险服务机构,金融保险机构,广东省,广州市,海珠区,113.32471,23.09597
212,中国邮政储蓄银行(敦和路支行),金融保险服务,金融保险服务机构,金融保险机构,广东省,广州市,海珠区,113.319616,23.086903
213,交通银行(聚德支行),金融保险服务,金融保险服务机构,金融保险机构,广东省,广州市,海珠区,113.327832,23.086067
214,中国光大银行(广州大道南支行),金融保险服务,金融保险服务机构,金融保险机构,广东省,广州市,海珠区,113.316785,23.085708
215,招商银行(合生广场支行),金融保险服务,金融保险服务机构,金融保险机构,广东省,广州市,海珠区,113.314207,23.085755
216,中国邮政储蓄银行(明月支行),金融保险服务,金融保险服务机构,金融保险机构,广东省,广州市,越秀区,113.312007,23.115799
217,广发银行(广州海珠支行),金融保险服务,金融保险服务机构,金融保险机构,广东省,广州市,海珠区,113.310121,23.10257
218,中国工商银行(广州大塘支行),金融保险服务,金融保险服务机构,金融保险机构,广东省,广州市,海珠区,113.327585,23.092359
219,广州农商银行(敦和分理处),金融保险服务,金融保险服务机构,金融保险机构,广东省,广州市,海珠区,113.313842,23.090868
220,广发银行(广州分行营业部),金融保险服务,金融保险服务机构,金融保险机构,广东省,广州市,天河区,113.328576,23.114226
221,中国邮政储蓄银行(海珠支行),金融保险服务,金融保险服务机构,金融保险机构,广东省,广州市,海珠区,113.316436,23.087946
222,农商银行嘉塘休闲中心,金融保险服务,金融保险服务机构,金融保险机构,广东省,广州市,海珠区,113.321202,23.085929
223,中国工商银行(广州愉景支行),金融保险服务,金融保险服务机构,金融保险机构,广东省,广州市,海珠区,113.312061,23.096953
224,中国建设银行(广州泓景花园支行),金融保险服务,金融保险服务机构,金融保险机构,广东省,广州市,海珠区,113.327584,23.099049
225,交通银行(广州大道支行),金融保险服务,金融保险服务机构,金融保险机构,广东省,广州市,海珠区,113.315427,23.084146
226,广州农商银行(滨江东支行),金融保险服务,金融保险服务机构,金融保险机构,广东省,广州市,海珠区,113.31191,23.103367
227,中国邮政储蓄银行(广州赤岗支行),金融保险服务,金融保险服务机构,金融保险机构,广东省,广州市,海珠区,113.331705,23.096389
228,华夏银行(广州海珠支行),金融保险服务,金融保险服务机构,金融保险机构,广东省,广州市,海珠区,113.314796,23.08577
229,广州银行(客村支行),金融保险服务,金融保险服务机构,金融保险机构,广东省,广州市,海珠区,113.314994,23.100112
230,中国建设银行,金融保险服务,金融保险服务机构,金融保险机构,广东省,广州市,海珠区,113.309532,23.085509
231,新华村镇银行便民服务点,金融保险服务,金融保险服务机构,金融保险机构,广东省,广州市,南沙区,113.322265,22.862071
232,新华村镇银行便民服务点,金融保险服务,金融保险服务机构,金融保险机构,广东省,广州市,南沙区,113.313632,22.866298
233,中国建设银行(榄核支行),金融保险服务,金融保险服务机构,金融保险机构,广东省,广州市,南沙区,113.343364,22.834615
234,南沙时间银行(榄核社区站),金融保险服务,金融保险服务机构,金融保险机构,广东省,广州市,南沙区,113.341253,22.83765
235,中国银行(榄核支行),金融保险服务,金融保险服务机构,金融保险机构,广东省,广州市,南沙区,113.343827,22.830847
236,中国农业银行(广州榄核支行),金融保险服务,金融保险服务机构,金融保险机构,广东省,广州市,南沙区,113.344527,22.837888
237,广州农商银行(榄核支行),金融保险服务,金融保险服务机构,金融保险机构,广东省,广州市,南沙区,113.340741,22.83849
238,广州农商银行(北斗分理处),金融保险服务,金融保险服务机构,金融保险机构,广东省,广州市,南沙区,113.345788,22.886445
239,中国邮政储蓄银行(榄核支行),金融保险服务,金融保险服务机构,金融保险机构,广东省,广州市,南沙区,113.339916,22.838631
240,广州农商银行(广场分理处),金融保险服务,金融保险服务机构,金融保险机构,广东省,广州市,南沙区,113.342409,22.831916
241,广州农商银行(牛角分理处),金融保险服务,金融保险服务机构,金融保险机构,广东省,广州市,南沙区,113.343333,22.86342
242,广州农商银行(紫坭支行),金融保险服务,金融保险服务机构,金融保险机构,广东省,广州市,番禺区,113.291449,22.891248
243,广州农商银行ATM(北斗分理处),金融保险服务,金融保险服务机构,金融保险机构,广东省,广州市,南沙区,113.345814,22.886292
244,广州农商银行(新港西路支行),金融保险服务,金融保险服务机构,金融保险机构,广东省,广州市,海珠区,113.302126,23.091188
245,广州农商银行ATM(新港西路),金融保险服务,金融保险服务机构,金融保险机构,广东省,广州市,海珠区,113.305537,23.095149
246,广州农商银行(横江支行),金融保险服务,金融保险服务机构,金融保险机构,广东省,广州市,番禺区,113.318321,22.93653
247,广发银行(祈福支行),金融保险服务,金融保险服务机构,金融保险机构,广东省,广州市,番禺区,113.334863,22.96919
248,兴业银行(番禺支行),金融保险服务,金融保险服务机构,金融保险机构,广东省,广州市,番禺区,113.353934,22.944838
249,中国银行(祈福名都支行),金融保险服务,金融保险服务机构,金融保险机构,广东省,广州市,番禺区,113.32058,22.963942
250,中国银行(广州番禺西丽路支行),金融保险服务,金融保险服务机构,金融保险机构,广东省,广州市,番禺区,113.35381,22.937306
251,中国工商银行(广州祈福支行),金融保险服务,金融保险服务机构,金融保险机构,广东省,广州市,番禺区,113.321014,22.963919
252,中国银行(康乐路支行),金融保险服务,金融保险服务机构,金融保险机构,广东省,广州市,番禺区,113.354087,22.945546
253,广州农商银行(汀根分理处),金融保险服务,金融保险服务机构,金融保险机构,广东省,广州市,番禺区,113.32882,22.943984
254,中国农业银行(祈福新村支行),金融保险服务,金融保险服务机构,金融保险机构,广东省,广州市,番禺区,113.321287,22.963963
255,明珠银行,金融保险服务,金融保险服务机构,金融保险机构,广东省,广州市,番禺区,113.341077,22.95136
256,中国建设银行(祈福名都支行),金融保险服务,金融保险服务机构,金融保险机构,广东省,广州市,番禺区,113.321468,22.963971
257,中国邮政储蓄银行(西丽营业所),金融保险服务,金融保险服务机构,金融保险机构,广东省,广州市,番禺区,113.353579,22.93465
258,中国工商银行(广州番禺康乐支行),金融保险服务,金融保险服务机构,金融保险机构,广东省,广州市,番禺区,113.35364,22.944824
259,中国银行(广州番禺沙湾支行),金融保险服务,金融保险服务机构,金融保险机构,广东省,广州市,番禺区,113.344649,22.90592
260,中国工商银行(广州番禺西丽支行),金融保险服务,金融保险服务机构,金融保险机构,广东省,广州市,番禺区,113.353983,22.936177
261,中国农业银行(番禺沙湾支行),金融保险服务,金融保险服务机构,金融保险机构,广东省,广州市,番禺区,113.337842,22.901132
262,招商银行(祈福支行),金融保险服务,金融保险服务机构,金融保险机构,广东省,广州市,番禺区,113.320855,22.963921
263,中国建设银行(沙湾支行),金融保险服务,金融保险服务机构,金融保险机构,广东省,广州市,番禺区,113.343005,22.903916
264,交通银行(广州祈福支行),金融保险服务,金融保险服务机构,金融保险机构,广东省,广州市,番禺区,113.330447,22.968604
265,中国建设银行(钟村支行),金融保险服务,金融保险服务机构,金融保险机构,广东省,广州市,番禺区,113.30934,22.972653
266,广州农商银行(市桥西城支行),金融保险服务,金融保险服务机构,金融保险机构,广东省,广州市,番禺区,113.354674,22.931688
267,中国工商银行(广州番禺德贤支行),金融保险服务,金融保险服务机构,金融保险机构,广东省,广州市,番禺区,113.356335,22.925328
268,中国建设银行,金融保险服务,金融保险服务机构,金融保险机构,广东省,广州市,番禺区,113.353899,22.911455
269,中国建设银行(海伦堡创意园支行),金融保险服务,金融保险服务机构,金融保险机构,广东省,广州市,番禺区,113.341834,22.938018
270,中国邮政储蓄银行,金融保险服务,金融保险服务机构,金融保险机构,广东省,广州市,番禺区,113.330452,22.969273
271,中国银行ATM(广州番禺西丽路支行),金融保险服务,金融保险服务机构,金融保险机构,广东省,广州市,番禺区,113.353766,22.937466
272,广州农商银行(沙头支行),金融保险服务,金融保险服务机构,金融保险机构,广东省,广州市,番禺区,113.348026,22.940298
273,中国邮政储蓄银行,金融保险服务,金融保险服务机构,金融保险机构,广东省,广州市,番禺区,113.34648,22.906799
274,中国建设银行,金融保险服务,金融保险服务机构,金融保险机构,广东省,广州市,番禺区,113.343109,22.970208
275,中国建设银行(昊龙支行),金融保险服务,金融保险服务机构,金融保险机构,广东省,广州市,番禺区,113.357735,22.915117
276,中国银行(中华大道支行),金融保险服务,金融保险服务机构,金融保险机构,广东省,广州市,番禺区,113.358205,22.914349
277,广州农商银行(渡头支行),金融保险服务,金融保险服务机构,金融保险机构,广东省,广州市,番禺区,113.346105,22.920748
278,中国工商银行(锦绣生态园支行),金融保险服务,金融保险服务机构,金融保险机构,广东省,广州市,番禺区,113.309289,22.969568
279,广州农商银行(捷进支行),金融保险服务,金融保险服务机构,金融保险机构,广东省,广州市,番禺区,113.358278,22.949295
280,平安银行(广州祈福缤纷汇支行),金融保险服务,金融保险服务机构,金融保险机构,广东省,广州市,番禺区,113.333464,22.970918
281,广州市农村商业银行(沙头第一分社),金融保险服务,金融保险服务机构,金融保险机构,广东省,广州市,番禺区,113.349842,22.946802
282,中国邮政储蓄银行(锦绣营业所),金融保险服务,金融保险服务机构,金融保险机构,广东省,广州市,番禺区,113.306302,22.970196
283,中国工商银行(番禺金山谷支行),金融保险服务,金融保险服务机构,金融保险机构,广东省,广州市,番禺区,113.346458,22.968095
284,中国农业银行(广州富豪山庄支行),金融保险服务,金融保险服务机构,金融保险机构,广东省,广州市,番禺区,113.348133,22.96612
285,中国邮政储蓄银行(沙湾营业所),金融保险服务,金融保险服务机构,金融保险机构,广东省,广州市,番禺区,113.336867,22.902208
286,广州农商银行(沙湾古镇支行),金融保险服务,金融保险服务机构,金融保险机构,广东省,广州市,番禺区,113.336787,22.902362
287,平安银行ATM(福平路),金融保险服务,金融保险服务机构,金融保险机构,广东省,广州市,番禺区,113.34121,22.95199
288,广州农商银行(南城支行),金融保险服务,银行,农村商业银行,广东省,广州市,番禺区,113.356826,22.918324
289,中国农业银行(广州番禺祈福缤纷汇支行),金融保险服务,金融保险服务机构,金融保险机构,广东省,广州市,番禺区,113.33452,22.970846
290,中国民生银行广州大罗塘商圈小微支行,金融保险服务,金融保险服务机构,金融保险机构,广东省,广州市,番禺区,113.347807,22.958822
291,广州农商银行(北桥分理处),金融保险服务,金融保险服务机构,金融保险机构,广东省,广州市,番禺区,113.353946,22.936446
292,汇丰银行(广州番禺奥园广场支行),金融保险服务,金融保险服务机构,金融保险机构,广东省,广州市,番禺区,113.356976,22.923922
293,广州农商银行(榄山支行),金融保险服务,金融保险服务机构,金融保险机构,广东省,广州市,番禺区,113.352815,22.948448
294,招商银行(奥园广场支行),金融保险服务,金融保险服务机构,金融保险机构,广东省,广州市,番禺区,113.358494,22.924518
295,广州农商银行(古坝支行),金融保险服务,金融保险服务机构,金融保险机构,广东省,广州市,番禺区,113.29047,22.916143
296,上海浦东发展银行(钟福小微支行),金融保险服务,金融保险服务机构,金融保险机构,广东省,广州市,番禺区,113.323039,22.968923
297,广州农商银行(雄峰商城支行),金融保险服务,金融保险服务机构,金融保险机构,广东省,广州市,番禺区,113.305709,22.970797
298,广州市农村商业银行(祈福分理处),金融保险服务,金融保险服务机构,金融保险机构,广东省,广州市,番禺区,113.320957,22.96393
299,广州农商银行(大罗支行),金融保险服务,金融保险服务机构,金融保险机构,广东省,广州市,番禺区,113.353142,22.960521
300,广州农商银行(花城支行),金融保险服务,金融保险服务机构,金融保险机构,广东省,广州市,花都区,113.293629,23.492894
301,广州农村商业银行ATM,金融保险服务,金融保险服务机构,金融保险机构,广东省,广州市,花都区,113.293615,23.492776
302,广州花都稠州村镇银行(花山支行),金融保险服务,金融保险服务机构,金融保险机构,广东省,广州市,花都区,113.280625,23.457198
303,广州农商银行(联安支行),金融保险服务,金融保险服务机构,金融保险机构,广东省,广州市,花都区,113.335188,23.469007
304,广州花都稠州村镇银行ATM(花山支行),金融保险服务,金融保险服务机构,金融保险机构,广东省,广州市,花都区,113.280657,23.457088
305,中国工商银行(沙湾支行),金融保险服务,金融保险服务机构,金融保险机构,广东省,广州市,番禺区,113.34802,22.90714
306,广州农商银行(沙湾支行),金融保险服务,金融保险服务机构,金融保险机构,广东省,广州市,番禺区,113.345164,22.905342
307,中国农业银行ATM(富豪山庄支行),金融保险服务,金融保险服务机构,金融保险机构,广东省,广州市,番禺区,113.347543,22.96538
308,交通银行(广州番禺支行),金融保险服务,金融保险服务机构,金融保险机构,广东省,广州市,番禺区,113.358295,22.924641
309,广州农商银行(梯面分理处),金融保险服务,金融保险服务机构,金融保险机构,广东省,广州市,花都区,113.294801,23.550163
310,广州农商银行ATM(梯面分理处),金融保险服务,金融保险服务机构,金融保险机构,广东省,广州市,花都区,113.294899,23.550311
311,中国建设银行裕龙通普惠金融服务点,金融保险服务,金融保险服务机构,金融保险机构,广东省,广州市,花都区,113.27998,23.582218
312,中国建设银行(祈福缤纷汇支行),金融保险服务,金融保险服务机构,金融保险机构,广东省,广州市,番禺区,113.334557,22.97104
313,中国建设银行ATM(广州番禺昊龙支行),金融保险服务,金融保险服务机构,金融保险机构,广东省,广州市,番禺区,113.357735,22.915117
314,中国银行(祈福支行),金融保险服务,金融保险服务机构,金融保险机构,广东省,广州市,番禺区,113.334642,22.970947
315,广州农商银行(金沙御苑分理处),金融保险服务,金融保险服务机构,金融保险机构,广东省,广州市,番禺区,113.354445,22.911763
316,广州农商银行ATM(沙湾古镇支行),金融保险服务,金融保险服务机构,金融保险机构,广东省,广州市,番禺区,113.336566,22.902417
317,中国设银行ATM,金融保险服务,金融保险服务机构,金融保险机构,广东省,广州市,番禺区,113.343106,22.970214
318,中国银行(富豪山庄支行),金融保险服务,金融保险服务机构,金融保险机构,广东省,广州市,番禺区,113.34768,22.966618
319,广州农商银行ATM(屏山支行),金融保险服务,金融保险服务机构,金融保险机构,广东省,广州市,番禺区,113.289121,22.962364
320,中国工商银行(广州祈福缤纷汇支行),金融保险服务,金融保险服务机构,金融保险机构,广东省,广州市,番禺区,113.33465,22.971063
321,招商银行(祈福缤纷汇社区支行),金融保险服务,金融保险服务机构,金融保险机构,广东省,广州市,番禺区,113.334035,22.97092
322,广州农商银行(榄塘分理处),金融保险服务,金融保险服务机构,金融保险机构,广东省,广州市,番禺区,113.354383,22.971492
323,广州农村商业银行ATM,金融保险服务,金融保险服务机构,金融保险机构,广东省,广州市,番禺区,113.353151,22.960521
324,中国工商银行(广州人和支行),金融保险服务,金融保险服务机构,金融保险机构,广东省,广州市,白云区,113.29343,23.33732
325,广州农商银行(华西支行),金融保险服务,金融保险服务机构,金融保险机构,广东省,广州市,白云区,113.298052,23.34469
326,广州农商银行(龙塘分理处),金融保险服务,金融保险服务机构,金融保险机构,广东省,广州市,白云区,113.331588,23.335139
327,中国农业银行(广州人和支行),金融保险服务,金融保险服务机构,金融保险机构,广东省,广州市,白云区,113.292452,23.337767
328,中国建设银行ATM(人和支行),金融保险服务,金融保险服务机构,金融保险机构,广东省,广州市,白云区,113.300315,23.332241
329,广州农商银行(高增分理处),金融保险服务,金融保险服务机构,金融保险机构,广东省,广州市,白云区,113.308083,23.34806
330,邮政银行,金融保险服务,金融保险服务机构,金融保险机构,广东省,广州市,白云区,113.296095,23.333799
331,广州农商银行(秀水分理处),金融保险服务,金融保险服务机构,金融保险机构,广东省,广州市,白云区,113.304301,23.324707
332,中国邮政储蓄银行(人和营业所),金融保险服务,金融保险服务机构,金融保险机构,广东省,广州市,白云区,113.295481,23.33471
333,广州农商银行(凤和分理处),金融保险服务,金融保险服务机构,金融保险机构,广东省,广州市,白云区,113.284335,23.343341
334,中国银行(广州新白云机场支行),金融保险服务,金融保险服务机构,金融保险机构,广东省,广州市,白云区,113.302869,23.368185
335,广发银行(新机场支行),金融保险服务,金融保险服务机构,金融保险机构,广东省,广州市,白云区,113.303265,23.368321
336,广州农商银行(华通支行),金融保险服务,金融保险服务机构,金融保险机构,广东省,广州市,白云区,113.297709,23.3327
337,广州农商银行(空港经济区支行),金融保险服务,金融保险服务机构,金融保险机构,广东省,广州市,白云区,113.298542,23.329479
338,广州农商银行ATM,金融保险服务,金融保险服务机构,金融保险机构,广东省,广州市,白云区,113.307965,23.348061
339,广州农商银行(鸦湖分理处),金融保险服务,金融保险服务机构,金融保险机构,广东省,广州市,白云区,113.292989,23.325459
340,广州白云民泰村镇银行(人和支行),金融保险服务,金融保险服务机构,金融保险机构,广东省,广州市,白云区,113.292897,23.337378
341,中国建设银行(广州人和支行),金融保险服务,金融保险服务机构,金融保险机构,广东省,广州市,白云区,113.292819,23.336489
342,中国建设银行(太和支行),金融保险服务,金融保险服务机构,金融保险机构,广东省,广州市,白云区,113.352219,23.302841
343,广州农商银行(明星分理处),金融保险服务,金融保险服务机构,金融保险机构,广东省,广州市,白云区,113.312848,23.356175
344,中国银行(民营科技园支行),金融保险服务,金融保险服务机构,金融保险机构,广东省,广州市,白云区,113.335785,23.298761
345,广州农商银行(矮岗分理处),金融保险服务,金融保险服务机构,金融保险机构,广东省,广州市,白云区,113.288645,23.35634
346,中国农业银行(广州竹料支行),金融保险服务,金融保险服务机构,金融保险机构,广东省,广州市,白云区,113.355367,23.366226
347,中国建设银行ATM(华盛南路),金融保险服务,金融保险服务机构,金融保险机构,广东省,广州市,白云区,113.285296,23.33184
348,中国建设银行(白云国际机场支行),金融保险服务,金融保险服务机构,金融保险机构,广东省,广州市,白云区,113.299422,23.36759
349,广州农商银行(太和支行),金融保险服务,金融保险服务机构,金融保险机构,广东省,广州市,白云区,113.357832,23.294137
350,广州农商银行(推广支行),金融保险服务,金融保险服务机构,金融保险机构,广东省,广州市,花都区,113.328328,23.437006
351,中国银行(广州花东支行),金融保险服务,金融保险服务机构,金融保险机构,广东省,广州市,花都区,113.321563,23.436086
352,中国工商银行ATM,金融保险服务,金融保险服务机构,金融保险机构,广东省,广州市,花都区,113.303718,23.388925
353,中国建设银行(花东支行),金融保险服务,金融保险服务机构,金融保险机构,广东省,广州市,花都区,113.323036,23.436304
354,广发银行ATM(广州白云机场T2航站楼),金融保险服务,金融保险服务机构,金融保险机构,广东省,广州市,花都区,113.30762,23.397023
355,广发银行ATM(广州白云机场T2航站楼),金融保险服务,金融保险服务机构,金融保险机构,广东省,广州市,花都区,113.306015,23.397396
356,中国农业银行(广州花都花东支行),金融保险服务,金融保险服务机构,金融保险机构,广东省,广州市,花都区,113.324572,23.43691
357,中国建设银行ATM(广州白云国际机场T1航站楼),金融保险服务,金融保险服务机构,金融保险机构,广东省,广州市,花都区,113.303162,23.385644
358,中国邮政储蓄银行(推广储蓄所),金融保险服务,金融保险服务机构,金融保险机构,广东省,广州市,花都区,113.324275,23.436368
359,广州银行(广州空港支行),金融保险服务,金融保险服务机构,金融保险机构,广东省,广州市,花都区,113.305045,23.435301
360,广发银行(广州白云机场T2航站楼),金融保险服务,金融保险服务机构,金融保险机构,广东省,广州市,花都区,113.305994,23.397393
361,中国邮政储蓄银行(推广储蓄所),金融保险服务,金融保险服务机构,金融保险机构,广东省,广州市,花都区,113.330039,23.437499
362,广州花都稠州村镇银行(花东支行),金融保险服务,金融保险服务机构,金融保险机构,广东省,广州市,花都区,113.327209,23.436856
363,广州农商银行(机场北支行),金融保险服务,金融保险服务机构,金融保险机构,广东省,广州市,花都区,113.321346,23.435997
364,广州农商银行(汉塘支行),金融保险服务,金融保险服务机构,金融保险机构,广东省,广州市,白云区,113.329433,23.377697
365,中国工商银行(花都新机场支行),金融保险服务,金融保险服务机构,金融保险机构,广东省,广州市,花都区,113.319908,23.436735
366,广州白云民泰村镇银行,金融保险服务,金融保险服务机构,金融保险机构,广东省,广州市,白云区,113.330338,23.378953
367,中国农业银行ATM(广州花都花东支行),金融保险服务,金融保险服务机构,金融保险机构,广东省,广州市,花都区,113.324734,23.436875
368,广发银行ATM(广州白云国际机场T1航站楼),金融保险服务,金融保险服务机构,金融保险机构,广东省,广州市,花都区,113.306235,23.386363
369,广州农商银行ATM(汉塘支行),金融保险服务,金融保险服务机构,金融保险机构,广东省,广州市,白云区,113.329428,23.377711
370,中国农业银行(五仙桥支行),金融保险服务,金融保险服务机构,金融保险机构,广东省,广州市,天河区,113.31804,23.171512
371,中国农业银行(广州梅花园支行),金融保险服务,金融保险服务机构,金融保险机构,广东省,广州市,白云区,113.320907,23.176214
372,广州农商银行(银河支行),金融保险服务,金融保险服务机构,金融保险机构,广东省,广州市,天河区,113.325513,23.165812
373,广州银行ATM(沙河支行),金融保险服务,金融保险服务机构,金融保险机构,广东省,广州市,天河区,113.317032,23.162873
374,中国建设银行(广州怡新支行),金融保险服务,金融保险服务机构,金融保险机构,广东省,广州市,白云区,113.324757,23.176508
375,广州银行(沙河支行),金融保险服务,金融保险服务机构,金融保险机构,广东省,广州市,天河区,113.317028,23.162892
376,中国建设银行(广州沙太支行),金融保险服务,金融保险服务机构,金融保险机构,广东省,广州市,天河区,113.323183,23.163452
377,中国邮政储蓄银行(白云支行),金融保险服务,金融保险服务机构,金融保险机构,广东省,广州市,白云区,113.320877,23.17814
378,中国银行(梅花园支行),金融保险服务,金融保险服务机构,金融保险机构,广东省,广州市,白云区,113.322598,23.175358
379,中国工商银行(广州北苑支行),金融保险服务,金融保险服务机构,金融保险机构,广东省,广州市,天河区,113.326164,23.167185
380,广发银行(沙太路支行),金融保险服务,金融保险服务机构,金融保险机构,广东省,广州市,白云区,113.332761,23.179759
381,交通银行(沙泰支行),金融保险服务,金融保险服务机构,金融保险机构,广东省,广州市,天河区,113.319408,23.159222
382,中国工商银行(梅花园支行),金融保险服务,金融保险服务机构,金融保险机构,广东省,广州市,白云区,113.321981,23.182052
383,中国农业银行(广州京溪支行)(装修中),金融保险服务,金融保险服务机构,金融保险机构,广东省,广州市,白云区,113.330301,23.181145
384,中国工商银行(广州沙和路支行),金融保险服务,金融保险服务机构,金融保险机构,广东省,广州市,天河区,113.318274,23.160716
385,中国工商银行(广州麒麟岗支行),金融保险服务,金融保险服务机构,金融保险机构,广东省,广州市,白云区,113.325657,23.183598
386,中国邮政储蓄银行(冠庭园支行),金融保险服务,金融保险服务机构,金融保险机构,广东省,广州市,天河区,113.316936,23.163236
387,广发银行(天河东支行),金融保险服务,金融保险服务机构,金融保险机构,广东省,广州市,天河区,113.33413,23.136322
388,中国银行(燕岭大厦支行),金融保险服务,金融保险服务机构,金融保险机构,广东省,广州市,天河区,113.326744,23.159314
389,中国银行(广州云景支行),金融保险服务,金融保险服务机构,金融保险机构,广东省,广州市,白云区,113.32779,23.186212
390,广州农商银行(元岗支行),金融保险服务,金融保险服务机构,金融保险机构,广东省,广州市,天河区,113.34231,23.175674
391,交通银行(沙河支行),金融保险服务,金融保险服务机构,金融保险机构,广东省,广州市,天河区,113.307894,23.155662
392,九江银行(广州天平装饰材料城社区支行),金融保险服务,金融保险服务机构,金融保险机构,广东省,广州市,天河区,113.318743,23.161016
393,中国建设银行(林和中路支行),金融保险服务,金融保险服务机构,金融保险机构,广东省,广州市,天河区,113.325917,23.145913
394,广州农商银行(龙口西支行),金融保险服务,金融保险服务机构,金融保险机构,广东省,广州市,天河区,113.33605,23.14262
395,招商银行(同和支行),金融保险服务,金融保险服务机构,金融保险机构,广东省,广州市,白云区,113.325635,23.185196
396,广州银行(福利支行),金融保险服务,金融保险服务机构,金融保险机构,广东省,广州市,天河区,113.327658,23.160395
397,中国光大银行(梅花园支行),金融保险服务,金融保险服务机构,金融保险机构,广东省,广州市,白云区,113.320899,23.178907
398,广州银行(龙口西支行),金融保险服务,金融保险服务机构,金融保险机构,广东省,广州市,天河区,113.33796,23.14471
399,中国工商银行(燕侨大厦支行),金融保险服务,金融保险服务机构,金融保险机构,广东省,广州市,天河区,113.327973,23.160723
400,广发银行(广州东站支行),金融保险服务,金融保险服务机构,金融保险机构,广东省,广州市,天河区,113.323489,23.148511
401,中国工商银行(广州东平支行),金融保险服务,金融保险服务机构,金融保险机构,广东省,广州市,白云区,113.315887,23.248971
402,广州农商银行(东平支行),金融保险服务,金融保险服务机构,金融保险机构,广东省,广州市,白云区,113.310091,23.248025
403,广州农商银行(永兴支行),金融保险服务,金融保险服务机构,金融保险机构,广东省,广州市,白云区,113.32414,23.268475
404,中国建设银行(岭南新世界支行),金融保险服务,金融保险服务机构,金融保险机构,广东省,广州市,白云区,113.296878,23.233478
405,中国银行(广州岭南新世界支行),金融保险服务,金融保险服务机构,金融保险机构,广东省,广州市,白云区,113.296834,23.232455
406,广州银行(嘉禾支行),金融保险服务,金融保险服务机构,金融保险机构,广东省,广州市,白云区,113.282197,23.238093
407,广州农商银行(龙归支行),金融保险服务,金融保险服务机构,金融保险机构,广东省,广州市,白云区,113.304076,23.275296
408,上海浦东发展银行(广州岭南新世界社区支行),金融保险服务,金融保险服务机构,金融保险机构,广东省,广州市,白云区,113.296477,23.228896
409,广州农商银行(黄边支行),金融保险服务,金融保险服务机构,金融保险机构,广东省,广州市,白云区,113.279564,23.224487
410,中国农业银行(嘉禾支行),金融保险服务,金融保险服务机构,金融保险机构,广东省,广州市,白云区,113.280717,23.236603
411,中国农业银行(龙归支行),金融保险服务,金融保险服务机构,金融保险机构,广东省,广州市,白云区,113.304393,23.275244
412,中国建设银行(云山支行),金融保险服务,金融保险服务机构,金融保险机构,广东省,广州市,白云区,113.28984,23.220433
413,中国工商银行(广州嘉禾支行),金融保险服务,金融保险服务机构,金融保险机构,广东省,广州市,白云区,113.280499,23.236159
414,中国农业银行(岭南新世界支行),金融保险服务,金融保险服务机构,金融保险机构,广东省,广州市,白云区,113.296714,23.230219
415,兴业银行(时代玫瑰园社区支行),金融保险服务,金融保险服务机构,金融保险机构,广东省,广州市,白云区,113.286432,23.223508
416,广州农商银行(长红支行),金融保险服务,金融保险服务机构,金融保险机构,广东省,广州市,白云区,113.294001,23.259075
417,广州农商银行ATM(永兴中路),金融保险服务,金融保险服务机构,金融保险机构,广东省,广州市,白云区,113.319864,23.2663
418,中国农业银行(时代玫瑰园支行),金融保险服务,金融保险服务机构,金融保险机构,广东省,广州市,白云区,113.286358,23.222346
419,中国工商银行(广州南湖支行),金融保险服务,金融保险服务机构,金融保险机构,广东省,广州市,白云区,113.339561,23.230782
420,中国工商银行(颐和支行),金融保险服务,金融保险服务机构,金融保险机构,广东省,广州市,白云区,113.306919,23.220676
421,招商银行(广州岭南新世界小微支行),金融保险服务,金融保险服务机构,金融保险机构,广东省,广州市,白云区,113.296803,23.231789
422,中国工商银行(岭南新世界支行),金融保险服务,金融保险服务机构,金融保险机构,广东省,广州市,白云区,113.296714,23.230581
423,中国工商银行(白云新城支行),金融保险服务,金融保险服务机构,金融保险机构,广东省,广州市,白云区,113.291506,23.220156
424,中国农业银行(广州林安物流园支行),金融保险服务,金融保险服务机构,金融保险机构,广东省,广州市,白云区,113.358448,23.262276
425,中国银行(广州黄边北路支行),金融保险服务,金融保险服务机构,金融保险机构,广东省,广州市,白云区,113.288723,23.221678
426,广州农商银行(新科支行),金融保险服务,金融保险服务机构,金融保险机构,广东省,广州市,白云区,113.289973,23.253947
427,中国工商银行(广州太和支行),金融保险服务,金融保险服务机构,金融保险机构,广东省,广州市,白云区,113.357288,23.292296
428,广州农商银行(云景支行),金融保险服务,金融保险服务机构,金融保险机构,广东省,广州市,白云区,113.303133,23.227571
429,广州农商银行(大源支行),金融保险服务,金融保险服务机构,金融保险机构,广东省,广州市,白云区,113.351514,23.249107
430,中国邮政(储著银行),金融保险服务,金融保险服务机构,金融保险机构,广东省,广州市,白云区,113.357629,23.291911
431,华夏银行(岭南新世界社区支行),金融保险服务,金融保险服务机构,金融保险机构,广东省,广州市,白云区,113.294291,23.231889
432,广州农商银行(白山支行),金融保险服务,金融保险服务机构,金融保险机构,广东省,广州市,白云区,113.408465,23.269786
433,广州农商银行(双龙支行),金融保险服务,金融保险服务机构,金融保险机构,广东省,广州市,白云区,113.36321,23.288169
434,广州农商银行(米龙分理处),金融保险服务,金融保险服务机构,金融保险机构,广东省,广州市,白云区,113.358649,23.288863
435,广州市农村商业银行ATM(米龙分理处),金融保险服务,金融保险服务机构,金融保险机构,广东省,广州市,白云区,113.358631,23.288965
436,广州白云民泰村镇银行(总行营业部),金融保险服务,金融保险服务机构,金融保险机构,广东省,广州市,白云区,113.357991,23.26326
437,广州农商银行(石湖支行),金融保险服务,金融保险服务机构,金融保险机构,广东省,广州市,白云区,113.345607,23.285881
438,中国邮政储蓄银行(太和支行),金融保险服务,金融保险服务机构,金融保险机构,广东省,广州市,白云区,113.357616,23.291822
439,广州农商银行(南岭分理处),金融保险服务,金融保险服务机构,金融保险机构,广东省,广州市,白云区,113.294591,23.267082
440,广州农商银行(白沙支行),金融保险服务,金融保险服务机构,金融保险机构,广东省,广州市,白云区,113.366491,23.33996
441,广州农商银行(广从支行),金融保险服务,金融保险服务机构,金融保险机构,广东省,广州市,白云区,113.374377,23.358593
442,上海浦东发展银行ATM(广外南国商学院),金融保险服务,金融保险服务机构,金融保险机构,广东省,广州市,白云区,113.384968,23.338537
443,广州农商银行(良田支行),金融保险服务,金融保险服务机构,金融保险机构,广东省,广州市,白云区,113.383134,23.348854
444,广州农商银行ATM(大龙口),金融保险服务,金融保险服务机构,金融保险机构,广东省,广州市,白云区,113.41617,23.335223
445,中国建设银行校园银行,金融保险服务,金融保险服务机构,金融保险机构,广东省,广州市,白云区,113.426512,23.368687
446,中国建设银行ATM(广东青年职业学院),金融保险服务,金融保险服务机构,金融保险机构,广东省,广州市,白云区,113.425188,23.368955
447,广州农商银行(中和分理处),金融保险服务,金融保险服务机构,金融保险机构,广东省,广州市,白云区,113.368785,23.350551
448,广州农商银行(凤浦支行),金融保险服务,金融保险服务机构,金融保险机构,广东省,广州市,海珠区,113.398428,23.093694
449,中国农业银行ATM(夏阳大街),金融保险服务,金融保险服务机构,金融保险机构,广东省,广州市,海珠区,113.396854,23.088905
450,中国建设银行(羊城花园支行),金融保险服务,金融保险服务机构,金融保险机构,广东省,广州市,天河区,113.40883,23.118639
451,中国工商银行(广州黄埔古港支行),金融保险服务,金融保险服务机构,金融保险机构,广东省,广州市,海珠区,113.385556,23.096865
452,中国建设银行,金融保险服务,金融保险服务机构,金融保险机构,广东省,广州市,海珠区,113.367385,23.095998
453,中国建设银行(东圃支行),金融保险服务,金融保险服务机构,金融保险机构,广东省,广州市,天河区,113.393033,23.125017
454,中国人民银行广州分行清算中心,金融保险服务,金融保险服务机构,金融保险机构,广东省,广州市,天河区,113.371605,23.123913
455,广州银行(东圃支行),金融保险服务,金融保险服务机构,金融保险机构,广东省,广州市,天河区,113.405114,23.121533
456,广州农商银行(新洲码头支行),金融保险服务,金融保险服务机构,金融保险机构,广东省,广州市,海珠区,113.409281,23.084838
457,平安银行(广州琶洲支行),金融保险服务,金融保险服务机构,金融保险机构,广东省,广州市,海珠区,113.378958,23.100907
458,中信银行(广州琶洲支行),金融保险服务,金融保险服务机构,金融保险机构,广东省,广州市,海珠区,113.38015,23.101375
459,中国银行(中悦广场支行),金融保险服务,金融保险服务机构,金融保险机构,广东省,广州市,海珠区,113.382703,23.104255
460,中国银行(广州东圃支行),金融保险服务,金融保险服务机构,金融保险机构,广东省,广州市,天河区,113.404721,23.120608
461,私人银行,金融保险服务,金融保险服务机构,金融保险机构,广东省,广州市,海珠区,113.384391,23.102083
462,招商银行(骏景广场支行),金融保险服务,金融保险服务机构,金融保险机构,广东省,广州市,天河区,113.382244,23.125045
463,中国农业银行(广州琶洲支行),金融保险服务,金融保险服务机构,金融保险机构,广东省,广州市,海珠区,113.366888,23.095544
464,中国农业银行(广州东圃支行),金融保险服务,金融保险服务机构,金融保险机构,广东省,广州市,天河区,113.402945,23.120899
465,中国建设银行(骏景花园支行),金融保险服务,金融保险服务机构,金融保险机构,广东省,广州市,天河区,113.385928,23.120906
466,广州农商银行(琶洲支行),金融保险服务,金融保险服务机构,金融保险机构,广东省,广州市,海珠区,113.382402,23.098265
467,中国建设银行(广州天悦支行),金融保险服务,金融保险服务机构,金融保险机构,广东省,广州市,海珠区,113.378794,23.100729
468,中国工商银行(广州琶洲支行),金融保险服务,金融保险服务机构,金融保险机构,广东省,广州市,海珠区,113.371413,23.100636
469,交通银行(广州东圃支行),金融保险服务,金融保险服务机构,金融保险机构,广东省,广州市,天河区,113.404346,23.120826
470,中国工商银行(广州天悦支行),金融保险服务,金融保险服务机构,金融保险机构,广东省,广州市,海珠区,113.378308,23.099972
471,广州农商银行(珠村支行),金融保险服务,金融保险服务机构,金融保险机构,广东省,广州市,天河区,113.424204,23.118017
472,广州农商银行(员村支行),金融保险服务,金融保险服务机构,金融保险机构,广东省,广州市,天河区,113.36498,23.111823
473,广发银行,金融保险服务,金融保险服务机构,金融保险机构,广东省,广州市,天河区,113.390641,23.12062
474,中国工商银行(广州美林支行),金融保险服务,金融保险服务机构,金融保险机构,广东省,广州市,天河区,113.413912,23.108834
475,平安银行(广州骏景花园社区支行),金融保险服务,金融保险服务机构,金融保险机构,广东省,广州市,天河区,113.386442,23.121805
476,交通银行(广州前进支行),金融保险服务,金融保险服务机构,金融保险机构,广东省,广州市,天河区,113.417171,23.113126
477,中国银行(远洋明苑支行),金融保险服务,金融保险服务机构,金融保险机构,广东省,广州市,天河区,113.412379,23.118913
478,中国农业银行(骏景花园支行),金融保险服务,金融保险服务机构,金融保险机构,广东省,广州市,天河区,113.385801,23.121911
479,中国银行(保利国际广场支行),金融保险服务,金融保险服务机构,金融保险机构,广东省,广州市,海珠区,113.371471,23.102072
480,东莞银行(广州天河支行),金融保险服务,金融保险服务机构,金融保险机构,广东省,广州市,天河区,113.417286,23.119021
481,广州银行(保利天悦支行),金融保险服务,金融保险服务机构,金融保险机构,广东省,广州市,海珠区,113.378327,23.100636
482,中国工商银行(广州东圃支行),金融保险服务,金融保险服务机构,金融保险机构,广东省,广州市,天河区,113.403709,23.122787
483,中国农业银行(天朗明居支行),金融保险服务,金融保险服务机构,金融保险机构,广东省,广州市,天河区,113.392222,23.125826
484,中国民生银行(广州琶洲支行),金融保险服务,金融保险服务机构,金融保险机构,广东省,广州市,海珠区,113.379261,23.101311
485,中国邮政储蓄银行(羊城花园营业所),金融保险服务,金融保险服务机构,金融保险机构,广东省,广州市,天河区,113.410147,23.119297
486,兴业银行(骏景花园社区支行),金融保险服务,金融保险服务机构,金融保险机构,广东省,广州市,天河区,113.38562,23.122089
487,广州农商银行(前进支行),金融保险服务,金融保险服务机构,金融保险机构,广东省,广州市,天河区,113.411336,23.112067
488,中国工商银行(广州骏景支行),金融保险服务,金融保险服务机构,金融保险机构,广东省,广州市,天河区,113.386521,23.122364
489,中国银行(广州智慧城支行),金融保险服务,金融保险服务机构,金融保险机构,广东省,广州市,天河区,113.402515,23.167952
490,中国建设银行(天河科技园支行),金融保险服务,金融保险服务机构,金融保险机构,广东省,广州市,天河区,113.412794,23.173173
491,招商银行(智慧城支行),金融保险服务,金融保险服务机构,金融保险机构,广东省,广州市,天河区,113.405833,23.167007
492,中国农业银行(广州智慧城支行),金融保险服务,金融保险服务机构,金融保险机构,广东省,广州市,天河区,113.410873,23.172199
493,中国建设银行(广州智慧城支行),金融保险服务,金融保险服务机构,金融保险机构,广东省,广州市,天河区,113.405629,23.165129
494,中国工商银行(广州岑村支行),金融保险服务,金融保险服务机构,金融保险机构,广东省,广州市,天河区,113.38317,23.16821
495,广州农商银行(软件园分理处),金融保险服务,金融保险服务机构,金融保险机构,广东省,广州市,天河区,113.412495,23.170973
496,东莞银行(广州东圃支行),金融保险服务,金融保险服务机构,金融保险机构,广东省,广州市,天河区,113.413663,23.162426
497,中国工商银行(广州智慧城支行),金融保险服务,金融保险服务机构,金融保险机构,广东省,广州市,天河区,113.41727,23.173334
498,广州农商银行(小新塘支行),金融保险服务,金融保险服务机构,金融保险机构,广东省,广州市,天河区,113.413129,23.157784
499,广州农商银行(大观分理处),金融保险服务,金融保险服务机构,金融保险机构,广东省,广州市,天河区,113.415481,23.162154
500,广州农商银行(岑村支行),金融保险服务,金融保险服务机构,金融保险机构,广东省,广州市,天河区,113.381803,23.164128
501,广发银行(龙洞支行),金融保险服务,金融保险服务机构,金融保险机构,广东省,广州市,天河区,113.367007,23.192754
502,广州农商银行(联和支行),金融保险服务,金融保险服务机构,金融保险机构,广东省,广州市,黄埔区,113.424675,23.200045
503,中国邮政储蓄银行(科技支行),金融保险服务,金融保险服务机构,金融保险机构,广东省,广州市,黄埔区,113.434293,23.165769
504,交通银行(广州开发区支行),金融保险服务,金融保险服务机构,金融保险机构,广东省,广州市,黄埔区,113.434899,23.165776
505,交通银行(开发区支行),金融保险服务,金融保险服务机构,金融保险机构,广东省,广州市,黄埔区,113.434787,23.165817
506,中信银行(广州开发区支行),金融保险服务,金融保险服务机构,金融保险机构,广东省,广州市,黄埔区,113.435661,23.162453
507,中国建设银行(广州经济技术开发区支行),金融保险服务,金融保险服务机构,金融保险机构,广东省,广州市,黄埔区,113.437209,23.168124
508,中国农业银行,金融保险服务,金融保险服务机构,金融保险机构,广东省,广州市,天河区,113.409759,23.183215
509,招商银行(汇景新城支行),金融保险服务,金融保险服务机构,金融保险机构,广东省,广州市,天河区,113.367644,23.149142
510,交通银行ATM(合景路)(暂停营业),金融保险服务,金融保险服务机构,金融保险机构,广东省,广州市,天河区,113.40585,23.155581
511,中国农业银行(广州龙洞支行),金融保险服务,金融保险服务机构,金融保险机构,广东省,广州市,天河区,113.367225,23.193078
512,中国工商银行(广州龙洞支行),金融保险服务,金融保险服务机构,金融保险机构,广东省,广州市,天河区,113.365776,23.193844
513,东莞银行ATM(广州东圃支行),金融保险服务,金融保险服务机构,金融保险机构,广东省,广州市,天河区,113.413619,23.162433
514,中国建设银行(广州龙洞支行),金融保险服务,金融保险服务机构,金融保险机构,广东省,广州市,天河区,113.366424,23.192674
515,兴业银行(中海康城社区支行),金融保险服务,金融保险服务机构,金融保险机构,广东省,广州市,天河区,113.403835,23.133523
516,中国银行(广州番禺支行),金融保险服务,金融保险服务机构,金融保险机构,广东省,广州市,番禺区,113.385636,22.934985
517,交通银行(广州东瀚园支行),金融保险服务,金融保险服务机构,金融保险机构,广东省,广州市,番禺区,113.393564,22.934847
518,中国建设银行(番禺东怡支行),金融保险服务,金融保险服务机构,金融保险机构,广东省,广州市,番禺区,113.392872,22.935211
519,中国银行(金海岸支行),金融保险服务,金融保险服务机构,金融保险机构,广东省,广州市,番禺区,113.406198,22.931247
520,中国邮政储蓄银行(石岗营业所),金融保险服务,金融保险服务机构,金融保险机构,广东省,广州市,番禺区,113.401235,22.937035
521,中国工商银行(清河东路支行),金融保险服务,金融保险服务机构,金融保险机构,广东省,广州市,番禺区,113.406656,22.9371
522,中信银行(广州番禺支行),金融保险服务,金融保险服务机构,金融保险机构,广东省,广州市,番禺区,113.389204,22.935145
523,东莞银行(番禺支行),金融保险服务,金融保险服务机构,金融保险机构,广东省,广州市,番禺区,113.393604,22.935181
524,新华村镇银行(市桥支行),金融保险服务,金融保险服务机构,金融保险机构,广东省,广州市,番禺区,113.394198,22.937605
525,广州农商银行(清河东路支行),金融保险服务,金融保险服务机构,金融保险机构,广东省,广州市,番禺区,113.378983,22.936104
526,广州农商银行(东湖洲支行),金融保险服务,金融保险服务机构,金融保险机构,广东省,广州市,番禺区,113.416246,22.927608
527,中国农业银行(亚运大道支行),金融保险服务,金融保险服务机构,金融保险机构,广东省,广州市,番禺区,113.405016,22.937241
528,广州农商银行(东怡支行),金融保险服务,金融保险服务机构,金融保险机构,广东省,广州市,番禺区,113.392094,22.935194
529,广州农商银行东怡支行广州社区金融服务站,金融保险服务,金融保险服务机构,金融保险机构,广东省,广州市,番禺区,113.392095,22.935201
530,平安银行(广州番禺支行),金融保险服务,金融保险服务机构,金融保险机构,广东省,广州市,番禺区,113.371447,22.938352
531,中国农业银行(平康支行),金融保险服务,金融保险服务机构,金融保险机构,广东省,广州市,番禺区,113.3809,22.940741
532,广州农商银行(石岗支行),金融保险服务,金融保险服务机构,金融保险机构,广东省,广州市,番禺区,113.398412,22.940651
533,广发银行(陈涌支行),金融保险服务,金融保险服务机构,金融保险机构,广东省,广州市,番禺区,113.371077,22.918682
534,中国建设银行(东兴支行),金融保险服务,金融保险服务机构,金融保险机构,广东省,广州市,番禺区,113.379582,22.928484
535,广州农商银行(傍西支行),金融保险服务,金融保险服务机构,金融保险机构,广东省,广州市,番禺区,113.405599,22.944321
536,广州银行(番禺支行),金融保险服务,金融保险服务机构,金融保险机构,广东省,广州市,番禺区,113.362002,22.940451
537,广州农商银行(东晟明珠支行),金融保险服务,金融保险服务机构,金融保险机构,广东省,广州市,番禺区,113.388146,22.928526
538,上海浦东发展银行(番禺支行),金融保险服务,金融保险服务机构,金融保险机构,广东省,广州市,番禺区,113.379888,22.93532
539,广州农商银行(傍江分理处),金融保险服务,金融保险服务机构,金融保险机构,广东省,广州市,番禺区,113.408804,22.945644
540,中国工商银行(番禺兴泰支行),金融保险服务,金融保险服务机构,金融保险机构,广东省,广州市,番禺区,113.378283,22.932456
541,广发银行(番禺支行),金融保险服务,金融保险服务机构,金融保险机构,广东省,广州市,番禺区,113.365799,22.939976
542,中国邮政储蓄银行(东城支行),金融保险服务,金融保险服务机构,金融保险机构,广东省,广州市,番禺区,113.378537,22.935393
543,广州农商银行(南村支行),金融保险服务,金融保险服务机构,金融保险机构,广东省,广州市,番禺区,113.392383,23.006983
544,中国邮政储蓄银行(南村邮局营业部),金融保险服务,金融保险服务机构,金融保险机构,广东省,广州市,番禺区,113.392307,23.007541
545,中国农业银行(广州番禺南村支行),金融保险服务,金融保险服务机构,金融保险机构,广东省,广州市,番禺区,113.391048,23.00852
546,中国工商银行(广州南村支行),金融保险服务,金融保险服务机构,金融保险机构,广东省,广州市,番禺区,113.394236,23.003199
547,广州农村商业银行ATM,金融保险服务,金融保险服务机构,金融保险机构,广东省,广州市,番禺区,113.395532,23.016581
548,中国银行(广州雅居乐支行),金融保险服务,金融保险服务机构,金融保险机构,广东省,广州市,番禺区,113.378784,23.00454
549,中国建设银行ATM(南村医院北),金融保险服务,金融保险服务机构,金融保险机构,广东省,广州市,番禺区,113.390145,23.007464
550,中国建设银行(番禺南村支行),金融保险服务,金融保险服务机构,金融保险机构,广东省,广州市,番禺区,113.3839,23.002889
551,广州农商银行(坑头支行),金融保险服务,金融保险服务机构,金融保险机构,广东省,广州市,番禺区,113.397003,22.983458
552,广州农商银行(金山分理处),金融保险服务,金融保险服务机构,金融保险机构,广东省,广州市,番禺区,113.418815,22.988492
553,广州农商银行(江南支行),金融保险服务,金融保险服务机构,金融保险机构,广东省,广州市,番禺区,113.370446,22.991764
554,中国工商银行(广州大学城支行),金融保险服务,金融保险服务机构,金融保险机构,广东省,广州市,番禺区,113.400845,23.037757
555,招商银行ATM(雅居乐剑桥郡社区支行),金融保险服务,金融保险服务机构,金融保险机构,广东省,广州市,番禺区,113.384667,23.022191
556,广州农商银行,金融保险服务,金融保险服务机构,金融保险机构,广东省,广州市,番禺区,113.366011,23.009502
557,中国建设银行ATM(番禺南村支行),金融保险服务,金融保险服务机构,金融保险机构,广东省,广州市,番禺区,113.384087,23.002976
558,中国银行(新造支行),金融保险服务,金融保险服务机构,金融保险机构,广东省,广州市,番禺区,113.416242,23.036616
559,中国农业银行(广州雅居乐支行),金融保险服务,金融保险服务机构,金融保险机构,广东省,广州市,番禺区,113.362396,23.009195
560,中国建设银行(雅居乐支行),金融保险服务,金融保险服务机构,金融保险机构,广东省,广州市,番禺区,113.363825,23.009376
561,广州农商银行(清华坊分理处),金融保险服务,金融保险服务机构,金融保险机构,广东省,广州市,番禺区,113.383018,23.002717
562,招商银行(天安支行),金融保险服务,金融保险服务机构,金融保险机构,广东省,广州市,番禺区,113.367406,22.97941
563,广州农商银行(剑桥郡分理处),金融保险服务,金融保险服务机构,金融保险机构,广东省,广州市,番禺区,113.383877,23.022908
564,兴业银行(广州雅居乐社区支行),金融保险服务,金融保险服务机构,金融保险机构,广东省,广州市,番禺区,113.366228,23.009592
565,中国农业银行(广州番禺新造支行),金融保险服务,金融保险服务机构,金融保险机构,广东省,广州市,番禺区,113.418388,23.036703
566,中国工商银行(广州大学城中环支行),金融保险服务,金融保险服务机构,金融保险机构,广东省,广州市,番禺区,113.375503,23.039756
567,中国邮政储蓄银行(新造营业所),金融保险服务,金融保险服务机构,金融保险机构,广东省,广州市,番禺区,113.418174,23.035506
568,广州农商银行(潭洲支行),金融保险服务,金融保险服务机构,金融保险机构,广东省,广州市,南沙区,113.389865,22.781693
569,中国农业银行(潭洲支行),金融保险服务,金融保险服务机构,金融保险机构,广东省,广州市,南沙区,113.389262,22.783513
570,中国邮政储蓄银行(广州潭洲支行),金融保险服务,金融保险服务机构,金融保险机构,广东省,广州市,南沙区,113.394022,22.787921
571,新华村镇银行(兴业路),金融保险服务,金融保险服务机构,金融保险机构,广东省,广州市,南沙区,113.40064,22.795129
572,中国工商银行(大岗支行),金融保险服务,金融保险服务机构,金融保险机构,广东省,广州市,南沙区,113.409688,22.804208
573,中国建设银行(南沙大岗支行),金融保险服务,金融保险服务机构,金融保险机构,广东省,广州市,南沙区,113.401354,22.79561
574,广州农商银行(豪岗分社),金融保险服务,金融保险服务机构,金融保险机构,广东省,广州市,南沙区,113.403992,22.799286
575,九江银行(广州南沙大岗社区支行),金融保险服务,金融保险服务机构,金融保险机构,广东省,广州市,南沙区,113.399876,22.794443
576,广州农商银行(阳光支行),金融保险服务,金融保险服务机构,金融保险机构,广东省,广州市,南沙区,113.40052,22.794982
577,中国邮政储蓄银行(大岗支行),金融保险服务,金融保险服务机构,金融保险机构,广东省,广州市,南沙区,113.406389,22.799695
578,中国银行(大岗支行),金融保险服务,金融保险服务机构,金融保险机构,广东省,广州市,南沙区,113.409296,22.804199
579,中国农业银行(大岗支行),金融保险服务,金融保险服务机构,金融保险机构,广东省,广州市,南沙区,113.4048,22.801115
580,广州农商银行(灵山支行),金融保险服务,金融保险服务机构,金融保险机构,广东省,广州市,南沙区,113.41284,22.808584
581,中国邮政储蓄银行(灵山储蓄所),金融保险服务,金融保险服务机构,金融保险机构,广东省,广州市,南沙区,113.412788,22.809366
582,广州农商银行(荟萃分理处),金融保险服务,金融保险服务机构,金融保险机构,广东省,广州市,南沙区,113.401406,22.803722
583,广州农商银行(大岗支行),金融保险服务,金融保险服务机构,金融保险机构,广东省,广州市,南沙区,113.41115,22.804865
584,广州农商银行(东隆支行),金融保险服务,金融保险服务机构,金融保险机构,广东省,广州市,南沙区,113.437177,22.77506
585,广州农商银行(雁沙支行),金融保险服务,金融保险服务机构,金融保险机构,广东省,广州市,南沙区,113.38595,22.856638
586,广州农商银行(九比分理处),金融保险服务,金融保险服务机构,金融保险机构,广东省,广州市,南沙区,113.390666,22.837753
587,广州农商银行(太石支行),金融保险服务,金融保险服务机构,金融保险机构,广东省,广州市,南沙区,113.402645,22.892317
588,广州农商银行(大简分理处),金融保险服务,金融保险服务机构,金融保险机构,广东省,广州市,南沙区,113.411113,22.869595
589,中国建设银行,金融保险服务,金融保险服务机构,金融保险机构,广东省,广州市,南沙区,113.409621,22.888824
590,广州农村商业银行(海丰分理处),金融保险服务,金融保险服务机构,金融保险机构,广东省,广州市,南沙区,113.429125,22.860134
591,广州农商银行(东湾支行),金融保险服务,金融保险服务机构,金融保险机构,广东省,广州市,南沙区,113.402774,22.888615
592,中国农业银行ATM,金融保险服务,金融保险服务机构,金融保险机构,广东省,广州市,南沙区,113.40312,22.889081
593,广州农商银行(大同分理处),金融保险服务,金融保险服务机构,金融保险机构,广东省,广州市,南沙区,113.394696,22.892761
594,广州农商银行(桥南支行),金融保险服务,金融保险服务机构,金融保险机构,广东省,广州市,番禺区,113.369154,22.922151
595,中国银行(广州番禺石基支行),金融保险服务,金融保险服务机构,金融保险机构,广东省,广州市,番禺区,113.43635,22.955726
596,中国邮政储蓄银行(番禺支行),金融保险服务,金融保险服务机构,金融保险机构,广东省,广州市,番禺区,113.360934,22.92091
597,广州农商银行(大东支行),金融保险服务,金融保险服务机构,金融保险机构,广东省,广州市,番禺区,113.366388,22.936614
598,中国农业银行(福景支行),金融保险服务,金融保险服务机构,金融保险机构,广东省,广州市,番禺区,113.359885,22.918139
599,中国工商银行ATM,金融保险服务,金融保险服务机构,金融保险机构,广东省,广州市,番禺区,113.369368,22.947201
600,广发银行ATM(奥园广场支行),金融保险服务,金融保险服务机构,金融保险机构,广东省,广州市,番禺区,113.358678,22.924557
601,广州农商银行ATM,金融保险服务,金融保险服务机构,金融保险机构,广东省,广州市,从化区,113.413209,23.70486
602,中国工商银行(广州番禺喜盈支行),金融保险服务,金融保险服务机构,金融保险机构,广东省,广州市,番禺区,113.360694,22.918262
603,广州农商银行(蚬涌支行),金融保险服务,金融保险服务机构,金融保险机构,广东省,广州市,番禺区,113.391554,22.913203
604,广州农商银行(南郊支行),金融保险服务,金融保险服务机构,金融保险机构,广东省,广州市,番禺区,113.368506,22.926823
605,兴业银行(市桥支行),金融保险服务,金融保险服务机构,金融保险机构,广东省,广州市,番禺区,113.358599,22.924526
606,广州农商银行(市桥支行),金融保险服务,金融保险服务机构,金融保险机构,广东省,广州市,番禺区,113.365616,22.943614
607,中国邮政储蓄银行(石基支行),金融保险服务,金融保险服务机构,金融保险机构,广东省,广州市,番禺区,113.436325,22.952994
608,广州农商银行(环城东路支行),金融保险服务,金融保险服务机构,金融保险机构,广东省,广州市,番禺区,113.370898,22.936954
609,广州农商银行(繁华支行),金融保险服务,金融保险服务机构,金融保险机构,广东省,广州市,番禺区,113.363592,22.941771
610,广州农商银行(石基支行),金融保险服务,金融保险服务机构,金融保险机构,广东省,广州市,番禺区,113.436044,22.953363
611,广州农商银行(富华支行),金融保险服务,金融保险服务机构,金融保险机构,广东省,广州市,番禺区,113.362407,22.94678
612,广州农商银行ATM(东郊分理处),金融保险服务,金融保险服务机构,金融保险机构,广东省,广州市,番禺区,113.371956,22.932805
613,广州农商银行(黄编支行),金融保险服务,金融保险服务机构,金融保险机构,广东省,广州市,番禺区,113.368789,22.948836
614,广州农商银行(中华中路支行),金融保险服务,金融保险服务机构,金融保险机构,广东省,广州市,番禺区,113.367917,22.950826
615,中国建设银行ATM,金融保险服务,金融保险服务机构,金融保险机构,广东省,广州市,番禺区,113.37498,22.91009
616,广州农商银行(新潭支行),金融保险服务,金融保险服务机构,金融保险机构,广东省,广州市,从化区,113.415191,23.667903
617,中国农业银行(鳌头支行),金融保险服务,金融保险服务机构,金融保险机构,广东省,广州市,从化区,113.421516,23.62097
618,中国建设银行(鳌头支行),金融保险服务,金融保险服务机构,金融保险机构,广东省,广州市,从化区,113.427825,23.618389
619,中国工商银行(鳌头支行),金融保险服务,金融保险服务机构,金融保险机构,广东省,广州市,从化区,113.427476,23.617915
620,广州农商银行(鳌头支行),金融保险服务,金融保险服务机构,金融保险机构,广东省,广州市,从化区,113.423193,23.620046
621,中国邮政储蓄银行(鳌头营业所),金融保险服务,金融保险服务机构,金融保险机构,广东省,广州市,从化区,113.427164,23.619046
622,兴业银行ATM(奥园广场),金融保险服务,金融保险服务机构,金融保险机构,广东省,广州市,番禺区,113.358569,22.92455
623,广州农商银行(东沙分理处),金融保险服务,金融保险服务机构,金融保险机构,广东省,广州市,番禺区,113.361987,22.959385
624,中国建设银行(钟落潭支行),金融保险服务,金融保险服务机构,金融保险机构,广东省,广州市,白云区,113.405597,23.384403
625,中国农业银行(钟落潭支行),金融保险服务,金融保险服务机构,金融保险机构,广东省,广州市,白云区,113.405763,23.383371
626,广州农商银行(钟落潭支行),金融保险服务,银行,农村商业银行,广东省,广州市,白云区,113.406022,23.383161
627,广州农商银行(龙兴支行),金融保险服务,金融保险服务机构,金融保险机构,广东省,广州市,花都区,113.421669,23.425748
628,中国工商银行(广州钟升支行),金融保险服务,金融保险服务机构,金融保险机构,广东省,广州市,白云区,113.403648,23.379125
629,广州农商银行(龙岗分理处),金融保险服务,金融保险服务机构,金融保险机构,广东省,广州市,白云区,113.383526,23.393152
630,广州农商银行(长腰岭分理处),金融保险服务,金融保险服务机构,金融保险机构,广东省,广州市,白云区,113.425698,23.385344
631,广州农商银行ATM,金融保险服务,金融保险服务机构,金融保险机构,广东省,广州市,白云区,113.404666,23.378006
632,广州农商银行(五龙岗支行),金融保险服务,金融保险服务机构,金融保险机构,广东省,广州市,白云区,113.404828,23.377823
633,广州农商银行(黎家塘分社),金融保险服务,金融保险服务机构,金融保险机构,广东省,广州市,白云区,113.435079,23.398864
634,广州农商银行ATM(草河分理处),金融保险服务,金融保险服务机构,金融保险机构,广东省,广州市,番禺区,113.397838,22.913627
635,广州农商银行(石基分理处),金融保险服务,金融保险服务机构,金融保险机构,广东省,广州市,南沙区,113.426716,22.895058
636,广州农商银行(禺山支行),金融保险服务,金融保险服务机构,金融保险机构,广东省,广州市,番禺区,113.358954,22.940551
637,广州农商银行(汀沙分理处),金融保险服务,金融保险服务机构,金融保险机构,广东省,广州市,番禺区,113.363329,22.949052
638,中国银行(广州番禺北城支行),金融保险服务,金融保险服务机构,金融保险机构,广东省,广州市,番禺区,113.361544,22.954551
639,广州农商银行ATM(广州黄编支行),金融保险服务,金融保险服务机构,金融保险机构,广东省,广州市,番禺区,113.368769,22.948982
640,广州农商银行(德信路分理处),金融保险服务,金融保险服务机构,金融保险机构,广东省,广州市,番禺区,113.374819,22.913148
641,广州农商银行ATM(下黄坊汪波大街),金融保险服务,金融保险服务机构,金融保险机构,广东省,广州市,番禺区,113.361952,22.964885
642,广州农商银行(龙美支行),金融保险服务,金融保险服务机构,金融保险机构,广东省,广州市,番禺区,113.370466,22.968692
643,中国建设银行ATM(建设路支行),金融保险服务,金融保险服务机构,金融保险机构,广东省,广州市,越秀区,113.285096,23.134047
644,中国农业银行ATM(天河东路支行),金融保险服务,金融保险服务机构,金融保险机构,广东省,广州市,天河区,113.333021,23.137706
645,中国人民银行广州分行恒福办公区,金融保险服务,金融保险服务机构,金融保险机构,广东省,广州市,越秀区,113.291145,23.144187
646,国民银行(中国)有限公司广州分行,金融保险服务,金融保险服务机构,金融保险机构,广东省,广州市,天河区,113.333314,23.133885
647,广州农商银行ATM,金融保险服务,金融保险服务机构,金融保险机构,广东省,广州市,越秀区,113.290566,23.140752
648,兴业银行广州分行兴承世家家族办公室,金融保险服务,金融保险服务机构,金融保险机构,广东省,广州市,天河区,113.319959,23.134269
649,中国银行ATM(广州国际电子大厦支行),金融保险服务,金融保险服务机构,金融保险机构,广东省,广州市,越秀区,113.291327,23.135866
650,广州农商银行(棋杆分理处),金融保险服务,金融保险服务机构,金融保险机构,广东省,广州市,从化区,113.505444,23.578971
651,中国建设银行,金融保险服务,金融保险服务机构,金融保险机构,广东省,广州市,从化区,113.441239,23.604298
652,中国建设银行ATM,金融保险服务,金融保险服务机构,金融保险机构,广东省,广州市,从化区,113.441498,23.604662
653,广州农商银行广州市农村金融服务站,金融保险服务,金融保险服务机构,金融保险机构,广东省,广州市,从化区,113.501397,23.540783
654,广东中小企业银行助贷中心,金融保险服务,金融保险服务机构,金融保险机构,广东省,广州市,天河区,113.32358,23.142686
655,汇丰银行ATM(花园酒店支行),金融保险服务,金融保险服务机构,金融保险机构,广东省,广州市,越秀区,113.286722,23.135331
656,广州农商银行(尚城支行),金融保险服务,金融保险服务机构,金融保险机构,广东省,广州市,白云区,113.284399,23.211518
657,广州农商银行(陈洞分理处),金融保险服务,金融保险服务机构,金融保险机构,广东省,广州市,白云区,113.455279,23.325792
658,中国建设银行ATM,金融保险服务,金融保险服务机构,金融保险机构,广东省,广州市,白云区,113.44603,23.37193
659,广州农村商业银行ATM(尚城支行),金融保险服务,金融保险服务机构,金融保险机构,广东省,广州市,白云区,113.284438,23.211561
660,广州农商银行(新和分理处),金融保险服务,金融保险服务机构,金融保险机构,广东省,广州市,白云区,113.469506,23.416576
661,广州农商银行(太平支行),金融保险服务,金融保险服务机构,金融保险机构,广东省,广州市,从化区,113.480862,23.430748
662,中国农业银行(从化太平支行),金融保险服务,金融保险服务机构,金融保险机构,广东省,广州市,从化区,113.480871,23.430464
663,中国建设银行(从化太平支行),金融保险服务,金融保险服务机构,金融保险机构,广东省,广州市,从化区,113.483161,23.432761
664,中国邮政储蓄银行(从化经济开发区支行),金融保险服务,金融保险服务机构,金融保险机构,广东省,广州市,从化区,113.482862,23.432613
665,中国银行(广州从化太平支行),金融保险服务,金融保险服务机构,金融保险机构,广东省,广州市,从化区,113.490346,23.442164
666,中国建设银行ATM,金融保险服务,金融保险服务机构,金融保险机构,广东省,广州市,从化区,113.491393,23.441222
667,中国工商银行(太平支行),金融保险服务,金融保险服务机构,金融保险机构,广东省,广州市,从化区,113.490086,23.441724
668,广州农商银行ATM,金融保险服务,金融保险服务机构,金融保险机构,广东省,广州市,白云区,113.461629,23.404051
669,广州农商银行(穗北分理处),金融保险服务,金融保险服务机构,金融保险机构,广东省,广州市,黄埔区,113.49571,23.385887
670,中国邮政储蓄银行(太平营业所),金融保险服务,金融保险服务机构,金融保险机构,广东省,广州市,从化区,113.489907,23.441508
671,中国工商银行ATM,金融保险服务,金融保险服务机构,金融保险机构,广东省,广州市,从化区,113.491339,23.441219
672,广州银行红卫村金融服务站,金融保险服务,金融保险服务机构,金融保险机构,广东省,广州市,黄埔区,113.495997,23.388928
673,中国工商银行ATM,金融保险服务,金融保险服务机构,金融保险机构,广东省,广州市,从化区,113.496751,23.44979
674,广州从化柳银村镇银行(开发区支行),金融保险服务,金融保险服务机构,金融保险机构,广东省,广州市,从化区,113.490627,23.444044
675,中国工商银行(广州经济技术开发区支行),金融保险服务,金融保险服务机构,金融保险机构,广东省,广州市,黄埔区,113.477425,23.17695
676,中国银行(广州香雪支行),金融保险服务,金融保险服务机构,金融保险机构,广东省,广州市,黄埔区,113.477687,23.17804
677,中国建设银行(广州萝岗支行),金融保险服务,金融保险服务机构,金融保险机构,广东省,广州市,黄埔区,113.48277,23.179133
678,广发银行(开发区支行),金融保险服务,金融保险服务机构,金融保险机构,广东省,广州市,黄埔区,113.457329,23.172048
679,华夏银行(广州开发区支行),金融保险服务,金融保险服务机构,金融保险机构,广东省,广州市,黄埔区,113.477504,23.17645
680,广州银行(香雪路支行),金融保险服务,金融保险服务机构,金融保险机构,广东省,广州市,黄埔区,113.48294,23.17904
681,中国光大银行(萝岗万达支行),金融保险服务,金融保险服务机构,金融保险机构,广东省,广州市,黄埔区,113.466617,23.166353
682,招商银行(广州开发区支行),金融保险服务,金融保险服务机构,金融保险机构,广东省,广州市,黄埔区,113.458115,23.168523
683,广州农商银行(开创大道支行),金融保险服务,金融保险服务机构,金融保险机构,广东省,广州市,黄埔区,113.499289,23.173637
684,广州银行(萝岗支行),金融保险服务,金融保险服务机构,金融保险机构,广东省,广州市,黄埔区,113.504117,23.174572
685,中国银行(萝岗奥园广场支行),金融保险服务,金融保险服务机构,金融保险机构,广东省,广州市,黄埔区,113.496169,23.174069
686,中国农业银行(科城山庄支行),金融保险服务,金融保险服务机构,金融保险机构,广东省,广州市,黄埔区,113.485094,23.185507
687,广州银行(科学城支行),金融保险服务,金融保险服务机构,金融保险机构,广东省,广州市,黄埔区,113.451187,23.160315
688,工商银行ATM,金融保险服务,金融保险服务机构,金融保险机构,广东省,广州市,黄埔区,113.471465,23.171304
689,九江银行(广州开发区支行),金融保险服务,金融保险服务机构,金融保险机构,广东省,广州市,黄埔区,113.466536,23.166137
690,中国工商银行(开泰大道支行),金融保险服务,金融保险服务机构,金融保险机构,广东省,广州市,黄埔区,113.469059,23.163662
691,广州银行(开发区支行),金融保险服务,金融保险服务机构,金融保险机构,广东省,广州市,黄埔区,113.469144,23.163633
692,广州农商银行(科学城支行),金融保险服务,金融保险服务机构,金融保险机构,广东省,广州市,黄埔区,113.467048,23.171134
693,中国农业银行(广州科学城支行),金融保险服务,金融保险服务机构,金融保险机构,广东省,广州市,黄埔区,113.450466,23.169013
694,中国建设银行(凯得广场支行),金融保险服务,金融保险服务机构,金融保险机构,广东省,广州市,黄埔区,113.456842,23.172089
695,中国民生银行(经济技术开发区支行),金融保险服务,金融保险服务机构,金融保险机构,广东省,广州市,黄埔区,113.468126,23.163549
696,中国农业银行(萝岗支行),金融保险服务,金融保险服务机构,金融保险机构,广东省,广州市,黄埔区,113.505956,23.174118
697,平安银行(广州科学城科技支行),金融保险服务,金融保险服务机构,金融保险机构,广东省,广州市,黄埔区,113.457246,23.168168
698,广东华兴银行(广州黄埔支行),金融保险服务,金融保险服务机构,金融保险机构,广东省,广州市,黄埔区,113.497023,23.173846
699,兴业银行(开发区支行),金融保险服务,金融保险服务机构,金融保险机构,广东省,广州市,黄埔区,113.458928,23.172402
700,中国银行ATM,金融保险服务,金融保险服务机构,金融保险机构,广东省,广州市,黄埔区,113.497032,23.155932
701,中国工商银行,金融保险服务,金融保险服务机构,金融保险机构,广东省,广州市,黄埔区,113.502772,23.174684
702,江西银行(广州开发区支行),金融保险服务,金融保险服务机构,金融保险机构,广东省,广州市,黄埔区,113.458193,23.173323
703,广州农商银行(萝岗支行),金融保险服务,金融保险服务机构,金融保险机构,广东省,广州市,黄埔区,113.504334,23.174341
704,广州农商银行(水西支行),金融保险服务,金融保险服务机构,金融保险机构,广东省,广州市,黄埔区,113.482608,23.18939
705,东莞银行(萝岗支行),金融保险服务,金融保险服务机构,金融保险机构,广东省,广州市,黄埔区,113.502206,23.174727
706,中国银行(广州科学城支行),金融保险服务,金融保险服务机构,金融保险机构,广东省,广州市,黄埔区,113.438636,23.166027
707,中国农业银行(广州东荟城支行),金融保险服务,金融保险服务机构,金融保险机构,广东省,广州市,黄埔区,113.500184,23.161215
708,广州农商银行(穗丰分理处),金融保险服务,金融保险服务机构,金融保险机构,广东省,广州市,白云区,113.461995,23.261726
709,中国建设银行,金融保险服务,金融保险服务机构,金融保险机构,广东省,广州市,白云区,113.455795,23.260246
710,中国建设银行ATM(107乡道)(暂停营业),金融保险服务,金融保险服务机构,金融保险机构,广东省,广州市,白云区,113.455795,23.260246
711,长沙银行,金融保险服务,金融保险服务机构,金融保险机构,广东省,广州市,黄埔区,113.451762,23.166874
712,渤海银行(广州开发区支行),金融保险服务,金融保险服务机构,金融保险机构,广东省,广州市,黄埔区,113.458505,23.173028
713,招商银行(广州科学城支行),金融保险服务,金融保险服务机构,金融保险机构,广东省,广州市,黄埔区,113.509611,23.155554
714,中国工商银行(广州科学城支行),金融保险服务,金融保险服务机构,金融保险机构,广东省,广州市,黄埔区,113.446837,23.161374
715,中国工商银行ATM,金融保险服务,金融保险服务机构,金融保险机构,广东省,广州市,黄埔区,113.453207,23.17811
716,浙商银行(广州开发区支行),金融保险服务,金融保险服务机构,金融保险机构,广东省,广州市,黄埔区,113.499354,23.175525
717,广州农商银行(萝峰支行),金融保险服务,金融保险服务机构,金融保险机构,广东省,广州市,黄埔区,113.509787,23.174992
718,广州农商银行ATM(水西支行),金融保险服务,金融保险服务机构,金融保险机构,广东省,广州市,黄埔区,113.483009,23.196861
719,平安银行金发科技厂区ATM,金融保险服务,金融保险服务机构,金融保险机构,广东省,广州市,黄埔区,113.453307,23.153625
720,广州农商银行(潭山分理处),金融保险服务,金融保险服务机构,金融保险机构,广东省,广州市,番禺区,113.460991,22.997163
721,中国邮政储蓄银行(化龙营业所),金融保险服务,金融保险服务机构,金融保险机构,广东省,广州市,番禺区,113.466024,23.028042
722,广州农商银行(明经分理处),金融保险服务,金融保险服务机构,金融保险机构,广东省,广州市,番禺区,113.467693,23.010531
723,中国银行(化龙支行),金融保险服务,金融保险服务机构,金融保险机构,广东省,广州市,番禺区,113.457681,23.037932
724,广州农商银行ATM(胜洲分理处),金融保险服务,金融保险服务机构,金融保险机构,广东省,广州市,番禺区,113.494396,23.015284
725,中国农业银行(化龙支行),金融保险服务,金融保险服务机构,金融保险机构,广东省,广州市,番禺区,113.454823,23.0412
726,广州农商银行(莲花山支行),金融保险服务,金融保险服务机构,金融保险机构,广东省,广州市,番禺区,113.502479,22.975485
727,广州农商银行(胜洲分理处),金融保险服务,金融保险服务机构,金融保险机构,广东省,广州市,番禺区,113.49444,23.015308
728,广州农商银行(复苏支行),金融保险服务,金融保险服务机构,金融保险机构,广东省,广州市,番禺区,113.48811,23.038747
729,广州农商银行(龙源支行),金融保险服务,金融保险服务机构,金融保险机构,广东省,广州市,番禺区,113.450859,23.042609
730,广州农商银行(茭塘支行),金融保险服务,金融保险服务机构,金融保险机构,广东省,广州市,番禺区,113.496836,23.006343
731,中国邮政储蓄银行(莲花山支行),金融保险服务,金融保险服务机构,金融保险机构,广东省,广州市,番禺区,113.502104,22.974219
732,广州市农村商业银行(化龙支行),金融保险服务,金融保险服务机构,金融保险机构,广东省,广州市,番禺区,113.455719,23.039474
733,广州农商银行ATM,金融保险服务,金融保险服务机构,金融保险机构,广东省,广州市,番禺区,113.455695,23.039584
734,广州农商银行(岳溪分理处),金融保险服务,金融保险服务机构,金融保险机构,广东省,广州市,番禺区,113.472101,22.987649
735,广州农商银行(官桥分理处),金融保险服务,金融保险服务机构,金融保险机构,广东省,广州市,番禺区,113.455313,22.979367
736,广州农商银行ATM(莲花山支行),金融保险服务,金融保险服务机构,金融保险机构,广东省,广州市,番禺区,113.499874,22.975347
737,中国工商银行(红山支行),金融保险服务,金融保险服务机构,金融保险机构,广东省,广州市,黄埔区,113.47763,23.094453
738,中国农业银行(红山支行),金融保险服务,金融保险服务机构,金融保险机构,广东省,广州市,黄埔区,113.478017,23.094052
739,广州农商银行(双沙支行),金融保险服务,金融保险服务机构,金融保险机构,广东省,广州市,黄埔区,113.480072,23.093492
740,中国邮政储蓄银行(文冲营业所),金融保险服务,金融保险服务机构,金融保险机构,广东省,广州市,黄埔区,113.476128,23.095027
741,交通银行ATM(祥晖大厦西南),金融保险服务,金融保险服务机构,金融保险机构,广东省,广州市,黄埔区,113.479357,23.093665
742,交通银行ATM(文船路),金融保险服务,金融保险服务机构,金融保险机构,广东省,广州市,黄埔区,113.47364,23.090656
743,广州银行(黄埔支行),金融保险服务,金融保险服务机构,金融保险机构,广东省,广州市,黄埔区,113.45557,23.103331
744,广州农商银行ATM(双岗黄岗大街),金融保险服务,金融保险服务机构,金融保险机构,广东省,广州市,黄埔区,113.480496,23.095575
745,中国银行(广州黄埔支行),金融保险服务,金融保险服务机构,金融保险机构,广东省,广州市,黄埔区,113.463281,23.099287
746,中国建设银行(石化支行),金融保险服务,金融保险服务机构,金融保险机构,广东省,广州市,黄埔区,113.470177,23.105992
747,中国工商银行,金融保险服务,金融保险服务机构,金融保险机构,广东省,广州市,黄埔区,113.469454,23.104311
748,广发银行(广州丰乐路支行),金融保险服务,金融保险服务机构,金融保险机构,广东省,广州市,黄埔区,113.456186,23.100277
749,中国银行(广州黄埔支行),金融保险服务,金融保险服务机构,金融保险机构,广东省,广州市,黄埔区,113.462752,23.099576
750,中国农业银行(广州文冲支行),金融保险服务,金融保险服务机构,金融保险机构,广东省,广州市,黄埔区,113.462041,23.100688
751,中国邮政储蓄银行(石化路营业所),金融保险服务,金融保险服务机构,金融保险机构,广东省,广州市,黄埔区,113.469351,23.10402
752,中国农业银行ATM(广州航海学院),金融保险服务,金融保险服务机构,金融保险机构,广东省,广州市,黄埔区,113.479664,23.103738
753,中国建设银行(丰乐路支行),金融保险服务,金融保险服务机构,金融保险机构,广东省,广州市,黄埔区,113.456587,23.099528
754,交通银行(黄埔花园支行),金融保险服务,金融保险服务机构,金融保险机构,广东省,广州市,黄埔区,113.456244,23.099969
755,交通银行ATM(新岗支行),金融保险服务,金融保险服务机构,金融保险机构,广东省,广州市,黄埔区,113.497467,23.084162
756,广州黄埔惠民村镇银行,金融保险服务,金融保险服务机构,金融保险机构,广东省,广州市,黄埔区,113.459957,23.10551
757,广州黄埔融和村镇银行,金融保险服务,金融保险服务机构,金融保险机构,广东省,广州市,黄埔区,113.457386,23.100723
758,平安银行(广州丰乐路支行),金融保险服务,金融保险服务机构,金融保险机构,广东省,广州市,黄埔区,113.456231,23.099316
759,广州农村商业银行ATM(沙浦分理处),金融保险服务,金融保险服务机构,金融保险机构,广东省,广州市,黄埔区,113.488151,23.089637
760,交通银行(黄埔支行),金融保险服务,金融保险服务机构,金融保险机构,广东省,广州市,黄埔区,113.447371,23.103202
761,中国工商银行(怡港支行),金融保险服务,金融保险服务机构,金融保险机构,广东省,广州市,黄埔区,113.455264,23.100419
762,中国工商银行广州黄埔支行,金融保险服务,金融保险服务机构,金融保险机构,广东省,广州市,黄埔区,113.448979,23.105346
763,兴业银行(黄埔花园社区支行),金融保险服务,金融保险服务机构,金融保险机构,广东省,广州市,黄埔区,113.456204,23.10015
764,中国银行(广州大沙东路支行),金融保险服务,金融保险服务机构,金融保险机构,广东省,广州市,黄埔区,113.451493,23.106202
765,中国邮政储蓄银行(黄埔支行),金融保险服务,金融保险服务机构,金融保险机构,广东省,广州市,黄埔区,113.446543,23.099702
766,中国建设银行(黄埔支行),金融保险服务,金融保险服务机构,金融保险机构,广东省,广州市,黄埔区,113.44693,23.103541
767,广州农商银行(庙头支行),金融保险服务,金融保险服务机构,金融保险机构,广东省,广州市,黄埔区,113.499562,23.082518
768,广州农商银行(民乐分理处),金融保险服务,金融保险服务机构,金融保险机构,广东省,广州市,从化区,113.472331,23.657582
769,中国农业银行金穗惠农通银行卡助农取款服务点,金融保险服务,金融保险服务机构,金融保险机构,广东省,广州市,从化区,113.46562,23.657339
770,广州农商银行,金融保险服务,金融保险服务机构,金融保险机构,广东省,广州市,从化区,113.503192,23.655248
771,中国农业银行(黄埔支行),金融保险服务,金融保险服务机构,金融保险机构,广东省,广州市,黄埔区,113.447844,23.101863
772,广州农商银行(文冲支行),金融保险服务,金融保险服务机构,金融保险机构,广东省,广州市,黄埔区,113.467818,23.100191
773,广州农商银行(下沙支行),金融保险服务,金融保险服务机构,金融保险机构,广东省,广州市,黄埔区,113.450145,23.101306
774,中国银行(夏园支行),金融保险服务,金融保险服务机构,金融保险机构,广东省,广州市,黄埔区,113.517142,23.082155
775,广州农商银行(丰乐支行),金融保险服务,金融保险服务机构,金融保险机构,广东省,广州市,黄埔区,113.45348,23.109317
776,广州黄埔融和村镇银行(港湾支行),金融保险服务,金融保险服务机构,金融保险机构,广东省,广州市,黄埔区,113.449885,23.096204
777,中信银行(黄埔支行),金融保险服务,金融保险服务机构,金融保险机构,广东省,广州市,黄埔区,113.454784,23.101939
778,广州农商银行(南基支行),金融保险服务,金融保险服务机构,金融保险机构,广东省,广州市,黄埔区,113.512311,23.081701
779,广州农商银行(大沙支行),金融保险服务,金融保险服务机构,金融保险机构,广东省,广州市,黄埔区,113.444397,23.09823
780,渣打银行(广州黄埔支行),金融保险服务,金融保险服务机构,金融保险机构,广东省,广州市,黄埔区,113.457904,23.107035
781,广州农商银行(横沙支行),金融保险服务,金融保险服务机构,金融保险机构,广东省,广州市,黄埔区,113.450746,23.105594
782,广州农商银行ATM,金融保险服务,金融保险服务机构,金融保险机构,广东省,广州市,黄埔区,113.453729,23.111557
783,广州农商银行(荔香支行),金融保险服务,金融保险服务机构,金融保险机构,广东省,广州市,黄埔区,113.443048,23.108303
784,广州农商银行(沙路分理处),金融保险服务,金融保险服务机构,金融保险机构,广东省,广州市,番禺区,113.450368,23.058703
785,广州农商银行(夏园支行),金融保险服务,金融保险服务机构,金融保险机构,广东省,广州市,黄埔区,113.516832,23.082095
786,广州农商银行(秀丽分理处),金融保险服务,金融保险服务机构,金融保险机构,广东省,广州市,黄埔区,113.51552,23.061547
787,中国建设银行指定监管交割仓库,金融保险服务,金融保险服务机构,金融保险机构,广东省,广州市,黄埔区,113.440583,23.123629
788,广州农商银行ATM(沙路分理处),金融保险服务,金融保险服务机构,金融保险机构,广东省,广州市,番禺区,113.450327,23.058692
789,广州农商银行(白坭分理处),金融保险服务,金融保险服务机构,金融保险机构,广东省,广州市,花都区,113.023629,23.42182
790,中国建设银行ATM(崇正路),金融保险服务,金融保险服务机构,金融保险机构,广东省,广州市,花都区,113.089077,23.409613
791,中国农业银行(赤坭支行),金融保险服务,金融保险服务机构,金融保险机构,广东省,广州市,花都区,113.079133,23.387984
792,广州花都稠州村镇银行(赤坭支行),金融保险服务,金融保险服务机构,金融保险机构,广东省,广州市,花都区,113.08281,23.384472
793,广州农商银行(赤坭支行),金融保险服务,金融保险服务机构,金融保险机构,广东省,广州市,花都区,113.07926,23.387721
794,中国邮政储蓄银行(广州花都赤坭营业所),金融保险服务,金融保险服务机构,金融保险机构,广东省,广州市,花都区,113.082362,23.384692
795,广州农商银行ATM(赤坭支行),金融保险服务,金融保险服务机构,金融保险机构,广东省,广州市,花都区,113.079115,23.387782
796,广州农商银行(赤坭分社),金融保险服务,金融保险服务机构,金融保险机构,广东省,广州市,花都区,113.081346,23.383611
797,中国建设银行(炭步分理处),金融保险服务,金融保险服务机构,金融保险机构,广东省,广州市,花都区,113.106389,23.335121
798,中国邮政储蓄银行(炭步支行),金融保险服务,金融保险服务机构,金融保险机构,广东省,广州市,花都区,113.105922,23.334603
799,中国邮政储蓄银行(广州市炭步支行),金融保险服务,金融保险服务机构,金融保险机构,广东省,广州市,花都区,113.110089,23.333051
800,广州农商银行(炭步支行),金融保险服务,金融保险服务机构,金融保险机构,广东省,广州市,花都区,113.106499,23.334504
801,广州农商银行(好美支行),金融保险服务,金融保险服务机构,金融保险机构,广东省,广州市,花都区,113.110019,23.332566
802,广州农商银行(大涡支行),金融保险服务,金融保险服务机构,金融保险机构,广东省,广州市,花都区,113.040078,23.31655
803,中国银行(广州花都狮岭支行),金融保险服务,金融保险服务机构,金融保险机构,广东省,广州市,花都区,113.151496,23.467479
804,中国农业银行(狮岭支行),金融保险服务,金融保险服务机构,金融保险机构,广东省,广州市,花都区,113.155209,23.461308
805,中国工商银行(广州花都狮岭支行),金融保险服务,金融保险服务机构,金融保险机构,广东省,广州市,花都区,113.17448,23.458461
806,中国银行(狮岭皮革城支行),金融保险服务,金融保险服务机构,金融保险机构,广东省,广州市,花都区,113.172857,23.456233
807,中国农业银行,金融保险服务,金融保险服务机构,金融保险机构,广东省,广州市,花都区,113.151944,23.463346
808,中国建设银行(狮岭分理处),金融保险服务,金融保险服务机构,金融保险机构,广东省,广州市,花都区,113.175691,23.453964
809,交通银行(广州狮岭支行),金融保险服务,金融保险服务机构,金融保险机构,广东省,广州市,花都区,113.172648,23.455794
810,中国农业银行ATM,金融保险服务,金融保险服务机构,金融保险机构,广东省,广州市,花都区,113.15617,23.467779
811,中国农业银行(金狮支行),金融保险服务,金融保险服务机构,金融保险机构,广东省,广州市,花都区,113.172435,23.454402
812,中国民生银行,金融保险服务,金融保险服务机构,金融保险机构,广东省,广州市,花都区,113.19272,23.48054
813,中国邮政储蓄银行(狮岭邮局营业部),金融保险服务,金融保险服务机构,金融保险机构,广东省,广州市,花都区,113.154109,23.46107
814,中国邮政储蓄银行(益群营业所),金融保险服务,金融保险服务机构,金融保险机构,广东省,广州市,花都区,113.186738,23.468877
815,中国邮政储蓄银行(狮岭大道西支行),金融保险服务,金融保险服务机构,金融保险机构,广东省,广州市,花都区,113.167379,23.4572
816,广州农商银行(金狮分理处),金融保险服务,金融保险服务机构,金融保险机构,广东省,广州市,花都区,113.16676,23.466597
817,广州农商银行(联合支行),金融保险服务,金融保险服务机构,金融保险机构,广东省,广州市,花都区,113.161394,23.4605
818,广州农商银行(雄狮支行),金融保险服务,金融保险服务机构,金融保险机构,广东省,广州市,花都区,113.150114,23.459638
819,中国农业银行(神山支行),金融保险服务,金融保险服务机构,金融保险机构,广东省,广州市,白云区,113.185467,23.332882
820,中国邮政储蓄银行(神山支行),金融保险服务,金融保险服务机构,金融保险机构,广东省,广州市,白云区,113.184427,23.3328
821,广州农商银行(石南分理处),金融保险服务,金融保险服务机构,金融保险机构,广东省,广州市,花都区,113.125175,23.332961
822,中国建设银行ATM(岭西路),金融保险服务,金融保险服务机构,金融保险机构,广东省,广州市,花都区,113.135667,23.360315
823,广州农商银行(岐山分理处),金融保险服务,金融保险服务机构,金融保险机构,广东省,广州市,花都区,113.164731,23.362537
824,广州农商银行(石龙分理处),金融保险服务,金融保险服务机构,金融保险机构,广东省,广州市,白云区,113.190436,23.314652
825,广州农商银行(马溪分理处),金融保险服务,金融保险服务机构,金融保险机构,广东省,广州市,花都区,113.147857,23.356326
826,广州农商银行(神山分社),金融保险服务,金融保险服务机构,金融保险机构,广东省,广州市,白云区,113.186223,23.332516
827,广州农商银行(街华分理处),金融保险服务,金融保险服务机构,金融保险机构,广东省,广州市,花都区,113.196402,23.365244
828,广州农商银行ATM(岐山分理处),金融保险服务,金融保险服务机构,金融保险机构,广东省,广州市,花都区,113.164657,23.362868
829,广州农商银行(民主分理处),金融保险服务,金融保险服务机构,金融保险机构,广东省,广州市,花都区,113.119335,23.357689
830,中国建设银行ATM(大观园路),金融保险服务,金融保险服务机构,金融保险机构,广东省,广州市,花都区,113.159771,23.401274
831,广州农商银行(保利花城分理处),金融保险服务,金融保险服务机构,金融保险机构,广东省,广州市,花都区,113.195361,23.416859
832,招商银行(风神支行),金融保险服务,金融保险服务机构,金融保险机构,广东省,广州市,花都区,113.169776,23.379706
833,中国银行ATM,金融保险服务,金融保险服务机构,金融保险机构,广东省,广州市,花都区,113.165099,23.397258
834,中国建设银行,金融保险服务,金融保险服务机构,金融保险机构,广东省,广州市,花都区,113.190308,23.416152
835,中国建设银行(风神大道支行),金融保险服务,金融保险服务机构,金融保险机构,广东省,广州市,花都区,113.170587,23.379753
836,中国农业银行(汽车城支行),金融保险服务,金融保险服务机构,金融保险机构,广东省,广州市,花都区,113.169202,23.379672
837,中国银行(风神大道支行),金融保险服务,金融保险服务机构,金融保险机构,广东省,广州市,花都区,113.168767,23.379625
838,中国农业银行(雅宝新城支行),金融保险服务,金融保险服务机构,金融保险机构,广东省,广州市,花都区,113.18851,23.424422
839,中国工商银行(花都汽车城支行),金融保险服务,金融保险服务机构,金融保险机构,广东省,广州市,花都区,113.171641,23.379827
840,中国银行,金融保险服务,金融保险服务机构,金融保险机构,广东省,广州市,花都区,113.195555,23.381971
841,中国农业银行(培正路),金融保险服务,金融保险服务机构,金融保险机构,广东省,广州市,花都区,113.127614,23.451055
842,中国农业银行(广州花都雄狮支行),金融保险服务,金融保险服务机构,金融保险机构,广东省,广州市,花都区,113.189178,23.448025
843,中国邮政储蓄银行(花都杨赤路营业所),金融保险服务,金融保险服务机构,金融保险机构,广东省,广州市,花都区,113.177679,23.452591
844,广州农商银行(皮革城分理处),金融保险服务,金融保险服务机构,金融保险机构,广东省,广州市,花都区,113.169733,23.451393
845,广州农商银行(毕村支行),金融保险服务,金融保险服务机构,金融保险机构,广东省,广州市,花都区,113.181626,23.383035
846,广州农商银行(冯村分理处),金融保险服务,银行,农村商业银行,广东省,广州市,花都区,113.127554,23.452759
847,广州农商银行(风神大道支行),金融保险服务,金融保险服务机构,金融保险机构,广东省,广州市,花都区,113.171062,23.379786
848,广州农商银行ATM(毕村支行),金融保险服务,金融保险服务机构,金融保险机构,广东省,广州市,花都区,113.181608,23.383171
849,中国工商银行ATM(花港大道),金融保险服务,金融保险服务机构,金融保险机构,广东省,广州市,花都区,113.162288,23.375958
850,广州农商银行(合成支行),金融保险服务,金融保险服务机构,金融保险机构,广东省,广州市,花都区,113.179272,23.452563
851,广州市农村商业银行ATM,金融保险服务,金融保险服务机构,金融保险机构,广东省,广州市,花都区,113.180944,23.441124
852,中国建设银行(雄狮支行),金融保险服务,金融保险服务机构,金融保险机构,广东省,广州市,花都区,113.171169,23.450663
853,中国建设银行自动取款机,金融保险服务,金融保险服务机构,金融保险机构,广东省,广州市,花都区,113.161201,23.373917
854,广州花都稠州村镇银行(金华路支行),金融保险服务,金融保险服务机构,金融保险机构,广东省,广州市,花都区,113.195467,23.382167
855,广州农商银行(三华分理处),金融保险服务,金融保险服务机构,金融保险机构,广东省,广州市,花都区,113.196978,23.388485
856,广州农商银行(鸦岗支行),金融保险服务,金融保险服务机构,金融保险机构,广东省,广州市,白云区,113.197811,23.232007
857,中国农业银行(石滩支行),金融保险服务,金融保险服务机构,金融保险机构,广东省,广州市,增城区,113.792872,23.172086
858,中国邮政储蓄银行(石滩营业所),金融保险服务,金融保险服务机构,金融保险机构,广东省,广州市,增城区,113.79528,23.172381
859,中国建设银行(石滩分理处),金融保险服务,金融保险服务机构,金融保险机构,广东省,广州市,增城区,113.792472,23.172189
860,中国工商银行(石滩支行),金融保险服务,金融保险服务机构,金融保险机构,广东省,广州市,增城区,113.792409,23.171689
861,中国银行(石滩支行),金融保险服务,金融保险服务机构,金融保险机构,广东省,广州市,增城区,113.788077,23.175645
862,广州农商银行(石滩支行),金融保险服务,金融保险服务机构,金融保险机构,广东省,广州市,增城区,113.789253,23.175598
863,广州农商银行ATM(立新支行),金融保险服务,金融保险服务机构,金融保险机构,广东省,广州市,增城区,113.79545,23.170953
864,中国建设银行ATM(南北主干道),金融保险服务,金融保险服务机构,金融保险机构,广东省,广州市,增城区,113.806189,23.192737
865,招商银行ATM,金融保险服务,金融保险服务机构,金融保险机构,广东省,广州市,增城区,113.802385,23.199668
866,广州农商银行(麻车支行),金融保险服务,金融保险服务机构,金融保险机构,广东省,广州市,增城区,113.769335,23.196553
867,广发银行(增城支行),金融保险服务,金融保险服务机构,金融保险机构,广东省,广州市,增城区,113.825855,23.288462
868,中国农业银行(增城区支行),金融保险服务,金融保险服务机构,金融保险机构,广东省,广州市,增城区,113.826566,23.284277
869,广州农商银行(荔乡支行),金融保险服务,金融保险服务机构,金融保险机构,广东省,广州市,增城区,113.825458,23.290468
870,中国建设银行(广州增城支行),金融保险服务,金融保险服务机构,金融保险机构,广东省,广州市,增城区,113.815074,23.275444
871,中信银行(挂绿湖支行),金融保险服务,金融保险服务机构,金融保险机构,广东省,广州市,增城区,113.816185,23.260276
872,广发银行(府前路支行),金融保险服务,金融保险服务机构,金融保险机构,广东省,广州市,增城区,113.825015,23.278576
873,平安银行(广州增城支行),金融保险服务,金融保险服务机构,金融保险机构,广东省,广州市,增城区,113.820911,23.275529
874,中信银行(增城支行),金融保险服务,金融保险服务机构,金融保险机构,广东省,广州市,增城区,113.820226,23.278959
875,中国工商银行(增城支行营业室),金融保险服务,金融保险服务机构,金融保险机构,广东省,广州市,增城区,113.831792,23.284864
876,中国工商银行(夏街支行),金融保险服务,金融保险服务机构,金融保险机构,广东省,广州市,增城区,113.823033,23.278532
877,广发银行(豪园支行),金融保险服务,金融保险服务机构,金融保险机构,广东省,广州市,增城区,113.8259,23.220949
878,中国银行(广州增城荔乡路支行),金融保险服务,金融保险服务机构,金融保险机构,广东省,广州市,增城区,113.824806,23.287136
879,中国银行(广州增城支行),金融保险服务,金融保险服务机构,金融保险机构,广东省,广州市,增城区,113.832734,23.289396
880,中国建设银行,金融保险服务,金融保险服务机构,金融保险机构,广东省,广州市,增城区,113.80729,23.288442
881,中国建设银行(碧桂园支行),金融保险服务,金融保险服务机构,金融保险机构,广东省,广州市,增城区,113.804202,23.287797
882,华夏银行(增城支行),金融保险服务,金融保险服务机构,金融保险机构,广东省,广州市,增城区,113.82002,23.278247
883,中国工商银行(广州荔城支行),金融保险服务,金融保险服务机构,金融保险机构,广东省,广州市,增城区,113.804496,23.291745
884,中国工商银行(挂绿路支行),金融保险服务,金融保险服务机构,金融保险机构,广东省,广州市,增城区,113.83373,23.288641
885,广州农商银行(万达分理处),金融保险服务,金融保险服务机构,金融保险机构,广东省,广州市,增城区,113.813644,23.276479
886,广东华兴银行(广州增城支行),金融保险服务,金融保险服务机构,金融保险机构,广东省,广州市,增城区,113.805044,23.288229
887,中国工商银行(荔乡支行),金融保险服务,金融保险服务机构,金融保险机构,广东省,广州市,增城区,113.824704,23.289082
888,中国人民银行(增城支行),金融保险服务,金融保险服务机构,金融保险机构,广东省,广州市,增城区,113.832374,23.286847
889,中国建设银行(增城豪园支行),金融保险服务,金融保险服务机构,金融保险机构,广东省,广州市,增城区,113.82437,23.217197
890,中国邮政储蓄银行(荔乡路营业所),金融保险服务,金融保险服务机构,金融保险机构,广东省,广州市,增城区,113.824796,23.289513
891,广州农商银行(增城支行),金融保险服务,金融保险服务机构,金融保险机构,广东省,广州市,增城区,113.818752,23.282554
892,广州银行(增城支行),金融保险服务,金融保险服务机构,金融保险机构,广东省,广州市,增城区,113.824434,23.286046
893,上海浦东发展银行(广州荔城小微支行),金融保险服务,金融保险服务机构,金融保险机构,广东省,广州市,增城区,113.804892,23.28991
894,中国建设银行(增城荔城支行),金融保险服务,金融保险服务机构,金融保险机构,广东省,广州市,增城区,113.832073,23.289865
895,中国建设银行(增城荔乡支行),金融保险服务,金融保险服务机构,金融保险机构,广东省,广州市,增城区,113.825579,23.291131
896,中国农业银行(荔城支行),金融保险服务,金融保险服务机构,金融保险机构,广东省,广州市,增城区,113.830928,23.287408
897,广东发展银行ATM(府前路支行),金融保险服务,金融保险服务机构,金融保险机构,广东省,广州市,增城区,113.824939,23.278591
898,交通银行(广州增城支行),金融保险服务,金融保险服务机构,金融保险机构,广东省,广州市,增城区,113.80597,23.288192
899,中国邮政储蓄银行(中山路支行),金融保险服务,金融保险服务机构,金融保险机构,广东省,广州市,增城区,113.835706,23.288138
900,招商银行(广州增城支行),金融保险服务,金融保险服务机构,金融保险机构,广东省,广州市,增城区,113.819853,23.277911
901,中国农业银行,金融保险服务,金融保险服务机构,金融保险机构,广东省,广州市,从化区,113.786141,23.743747
902,广州农商银行(林场分理处),金融保险服务,金融保险服务机构,金融保险机构,广东省,广州市,从化区,113.785719,23.743961
903,广州农商银行ATM(林场分理处),金融保险服务,金融保险服务机构,金融保险机构,广东省,广州市,从化区,113.785489,23.743956
904,广州农商银行(派潭支行),金融保险服务,金融保险服务机构,金融保险机构,广东省,广州市,增城区,113.785813,23.489832
905,中国邮政储蓄银行(增城区派潭支行),金融保险服务,金融保险服务机构,金融保险机构,广东省,广州市,增城区,113.781321,23.487929
906,广州农商银行,金融保险服务,金融保险服务机构,金融保险机构,广东省,广州市,增城区,113.818763,23.466043
907,广州农商银行银行卡助农取款服务点,金融保险服务,金融保险服务机构,金融保险机构,广东省,广州市,增城区,113.825847,23.463852
908,中国建设银行ATM(锦绣香江温泉酒店),金融保险服务,金融保险服务机构,金融保险机构,广东省,广州市,增城区,113.777568,23.564715
909,广州农商银行广州市农村金融服务站,金融保险服务,金融保险服务机构,金融保险机构,广东省,广州市,增城区,113.76183,23.57861
910,中国农业发展银行(增城支行),金融保险服务,金融保险服务机构,金融保险机构,广东省,广州市,增城区,113.829634,23.298428
911,广发银行(沙园路支行),金融保险服务,金融保险服务机构,金融保险机构,广东省,广州市,增城区,113.831516,23.294577
912,中国工商银行(增城锦绣支行),金融保险服务,金融保险服务机构,金融保险机构,广东省,广州市,增城区,113.821949,23.303163
913,中国银行(广州增城开元路支行),金融保险服务,金融保险服务机构,金融保险机构,广东省,广州市,增城区,113.828298,23.294444
914,中国邮政储蓄银行(菜园中营业所),金融保险服务,金融保险服务机构,金融保险机构,广东省,广州市,增城区,113.82682,23.301896
915,广州农商银行(城丰支行),金融保险服务,金融保险服务机构,金融保险机构,广东省,广州市,增城区,113.827716,23.295784
916,中国邮政储蓄银行(小楼营业所),金融保险服务,金融保险服务机构,金融保险机构,广东省,广州市,增城区,113.791515,23.415468
917,广州农商银行(腊布支行),金融保险服务,金融保险服务机构,金融保险机构,广东省,广州市,增城区,113.792761,23.417554
918,广州农商银行(小楼支行),金融保险服务,金融保险服务机构,金融保险机构,广东省,广州市,增城区,113.834728,23.380445
919,广州农商银行(正果支行),金融保险服务,金融保险服务机构,金融保险机构,广东省,广州市,增城区,113.894822,23.416546
920,中国邮政储蓄银行(增城正果营业所),金融保险服务,金融保险服务机构,金融保险机构,广东省,广州市,增城区,113.89467,23.415622
921,广州农商银行银行卡助农取款服务点,金融保险服务,金融保险服务机构,金融保险机构,广东省,广州市,增城区,113.913126,23.397037
922,广州农商银行(塔山分理处),金融保险服务,金融保险服务机构,金融保险机构,广东省,广州市,增城区,113.85955,23.243559
923,广州农商银行ATM(华立学院),金融保险服务,金融保险服务机构,金融保险机构,广东省,广州市,增城区,113.867583,23.240414
924,中国工商银行(增城增江支行),金融保险服务,金融保险服务机构,金融保险机构,广东省,广州市,增城区,113.84451,23.278401
925,中国农业银行(增江支行),金融保险服务,金融保险服务机构,金融保险机构,广东省,广州市,增城区,113.844528,23.278702
926,中国银行(东桥东路支行),金融保险服务,金融保险服务机构,金融保险机构,广东省,广州市,增城区,113.84291,23.285967
927,中国银行广州增城增江大道支行,金融保险服务,金融保险服务机构,金融保险机构,广东省,广州市,增城区,113.843604,23.280805
928,中国建设银行(广州增城莱茵支行),金融保险服务,金融保险服务机构,金融保险机构,广东省,广州市,增城区,113.843502,23.28148
929,中国邮政储蓄银行(东湖营业所),金融保险服务,金融保险服务机构,金融保险机构,广东省,广州市,增城区,113.84476,23.284907
930,广州农商银行(荔园支行),金融保险服务,金融保险服务机构,金融保险机构,广东省,广州市,增城区,113.842347,23.279131
931,中信银行ATM,金融保险服务,金融保险服务机构,金融保险机构,广东省,广州市,增城区,113.842573,23.284619
932,中国建设银行,金融保险服务,金融保险服务机构,金融保险机构,广东省,广州市,增城区,113.843763,23.351501
933,中国建设银行裕农通,金融保险服务,金融保险服务机构,金融保险机构,广东省,广州市,增城区,113.843593,23.350278
934,广州农商银行(三江支行),金融保险服务,金融保险服务机构,金融保险机构,广东省,广州市,增城区,113.854865,23.187352
935,中国建设银行(三江分理处),金融保险服务,金融保险服务机构,金融保险机构,广东省,广州市,增城区,113.857062,23.185682
936,中国邮政储蓄银行(三江营业所),金融保险服务,金融保险服务机构,金融保险机构,广东省,广州市,增城区,113.85274,23.185048
937,广州农商银行三江支行广州市农村金融服务站,金融保险服务,金融保险服务机构,金融保险机构,广东省,广州市,增城区,113.854837,23.187356
938,上海银行ATM,金融保险服务,金融保险服务机构,金融保险机构,广东省,广州市,增城区,113.954777,23.429263
939,广州银行ATM,金融保险服务,金融保险服务机构,金融保险机构,广东省,广州市,增城区,113.971168,23.414102
940,广州农商银行(吕田支行),金融保险服务,金融保险服务机构,金融保险机构,广东省,广州市,从化区,113.952569,23.811661
941,中国民生银行(大朗支行),金融保险服务,金融保险服务机构,金融保险机构,广东省,广州市,从化区,113.926132,23.928354
942,中国民生银行ATM(大朗支行),金融保险服务,金融保险服务机构,金融保险机构,广东省,广州市,从化区,113.926132,23.928354
943,中国建设银行裕农通普惠金融服务点,金融保险服务,金融保险服务机构,金融保险机构,广东省,广州市,从化区,114.007683,23.80688
944,广州银行(从化支行),金融保险服务,金融保险服务机构,金融保险机构,广东省,广州市,从化区,113.594903,23.552972
945,中国工商银行(旺城支行),金融保险服务,金融保险服务机构,金融保险机构,广东省,广州市,从化区,113.579746,23.554268
946,中国农业发展银行(从化区支行),金融保险服务,金融保险服务机构,金融保险机构,广东省,广州市,从化区,113.583867,23.538826
947,中国建设银行(从化支行),金融保险服务,金融保险服务机构,金融保险机构,广东省,广州市,从化区,113.588054,23.543472
948,中国银行(广州从化支行),金融保险服务,金融保险服务机构,金融保险机构,广东省,广州市,从化区,113.586901,23.547919
949,中国建设银行(从化流溪支行),金融保险服务,金融保险服务机构,金融保险机构,广东省,广州市,从化区,113.585718,23.550766
950,中国工商银行(广州旺城支行),金融保险服务,金融保险服务机构,金融保险机构,广东省,广州市,从化区,113.575461,23.555123
951,中国工商银行(从化支行),金融保险服务,金融保险服务机构,金融保险机构,广东省,广州市,从化区,113.590513,23.548527
952,中国建设银行,金融保险服务,金融保险服务机构,金融保险机构,广东省,广州市,从化区,113.588896,23.546699
953,中国建设银行ATM,金融保险服务,金融保险服务机构,金融保险机构,广东省,广州市,从化区,113.577446,23.555385
954,中国农业银行(新广场支行),金融保险服务,金融保险服务机构,金融保险机构,广东省,广州市,从化区,113.58559,23.540358
955,广州农商银行(旺城分理处),金融保险服务,金融保险服务机构,金融保险机构,广东省,广州市,从化区,113.571211,23.556815
956,平安银行(广州从化支行),金融保险服务,金融保险服务机构,金融保险机构,广东省,广州市,从化区,113.589962,23.534872
957,中国工商银行ATM(新城西路),金融保险服务,金融保险服务机构,金融保险机构,广东省,广州市,从化区,113.579544,23.554334
958,广州农商银行ATM(明珠分理处),金融保险服务,金融保险服务机构,金融保险机构,广东省,广州市,从化区,113.536536,23.592106
959,中国邮政储蓄银行(河西支行),金融保险服务,金融保险服务机构,金融保险机构,广东省,广州市,从化区,113.589702,23.54652
960,中国农业银行(从化河东北支行),金融保险服务,金融保险服务机构,金融保险机构,广东省,广州市,从化区,113.596119,23.546274
961,招商银行(广州从化支行),金融保险服务,金融保险服务机构,金融保险机构,广东省,广州市,从化区,113.589567,23.534274
962,中国银行ATM,金融保险服务,金融保险服务机构,金融保险机构,广东省,广州市,从化区,113.534939,23.586817
963,中国光大银行广州青云社区支行,金融保险服务,金融保险服务机构,金融保险机构,广东省,广州市,从化区,113.585131,23.545555
964,中国建设银行(从化江埔支行),金融保险服务,金融保险服务机构,金融保险机构,广东省,广州市,从化区,113.595155,23.545441
965,中国农业银行(广州从化支行),金融保险服务,金融保险服务机构,金融保险机构,广东省,广州市,从化区,113.591943,23.541607
966,中国建设银行(从化开源支行),金融保险服务,金融保险服务机构,金融保险机构,广东省,广州市,从化区,113.594923,23.551662
967,中国邮政储蓄银行(广州市东风营业所),金融保险服务,金融保险服务机构,金融保险机构,广东省,广州市,从化区,113.592299,23.553598
968,中国农业银行(新世纪支行),金融保险服务,金融保险服务机构,金融保险机构,广东省,广州市,从化区,113.588829,23.548073
969,中国农业银行(从化城郊支行),金融保险服务,金融保险服务机构,金融保险机构,广东省,广州市,从化区,113.595307,23.55297
970,中国银行(广州从化河东支行),金融保险服务,金融保险服务机构,金融保险机构,广东省,广州市,从化区,113.590199,23.535173
971,中国农业银行(青云支行),金融保险服务,金融保险服务机构,金融保险机构,广东省,广州市,从化区,113.597349,23.540363
972,中国邮政储蓄银行(从化区支行),金融保险服务,金融保险服务机构,金融保险机构,广东省,广州市,从化区,113.580932,23.554077
973,广州从化柳银村镇银行,金融保险服务,金融保险服务机构,金融保险机构,广东省,广州市,从化区,113.58908,23.546918
974,广州农商银行(新城分理处),金融保险服务,银行,广州农商银行,广东省,广州市,从化区,113.584506,23.549961
975,中国农业银行(从化新城支行),金融保险服务,金融保险服务机构,金融保险机构,广东省,广州市,从化区,113.587059,23.543887
976,中国农业银行(从化雅居乐支行),金融保险服务,金融保险服务机构,金融保险机构,广东省,广州市,从化区,113.592492,23.537327
977,广州从化柳银村镇银行,金融保险服务,金融保险服务机构,金融保险机构,广东省,广州市,从化区,113.594909,23.551556
978,广州农商银行(河滨支行),金融保险服务,金融保险服务机构,金融保险机构,广东省,广州市,从化区,113.594043,23.55049
979,中国人民银行(从化支行),金融保险服务,金融保险服务机构,金融保险机构,广东省,广州市,从化区,113.586139,23.546743
980,中国农业银行ATM,金融保险服务,金融保险服务机构,金融保险机构,广东省,广州市,从化区,113.585407,23.546741
981,农商银行,金融保险服务,金融保险服务机构,金融保险机构,广东省,广州市,从化区,113.592166,23.536993
982,中国工商银行(东庭轩酒店西北),金融保险服务,金融保险服务机构,金融保险机构,广东省,广州市,从化区,113.595775,23.544881
983,广州农商银行(新世纪支行),金融保险服务,金融保险服务机构,金融保险机构,广东省,广州市,从化区,113.589469,23.548086
984,广州农商银行(青云分理处),金融保险服务,金融保险服务机构,金融保险机构,广东省,广州市,从化区,113.584412,23.543715
985,中国邮政储蓄银行ATM(河西支行),金融保险服务,金融保险服务机构,金融保险机构,广东省,广州市,从化区,113.589603,23.546645
986,中国工商银行(从化凤仪支行),金融保险服务,金融保险服务机构,金融保险机构,广东省,广州市,从化区,113.588122,23.541811
987,中国建设银行(从化新城广场支行),金融保险服务,金融保险服务机构,金融保险机构,广东省,广州市,从化区,113.585394,23.539777
988,广州农商银行ATM,金融保险服务,金融保险服务机构,金融保险机构,广东省,广州市,从化区,113.587612,23.543905
989,中国银行(广州从化府前路支行),金融保险服务,金融保险服务机构,金融保险机构,广东省,广州市,从化区,113.588142,23.541032
990,中国建设银行ATM(雍禾苑住宅小区C区东),金融保险服务,金融保险服务机构,金融保险机构,广东省,广州市,从化区,113.582869,23.535934
991,广州农商银行(向阳分理处),金融保险服务,金融保险服务机构,金融保险机构,广东省,广州市,从化区,113.59103,23.551995
992,中国工商银行(从化荔香支行),金融保险服务,金融保险服务机构,金融保险机构,广东省,广州市,从化区,113.589572,23.534495
993,中国农业银行(神岗支行),金融保险服务,金融保险服务机构,金融保险机构,广东省,广州市,从化区,113.529043,23.485364
994,中国农业银行(从化欣荣宏支行),金融保险服务,金融保险服务机构,金融保险机构,广东省,广州市,从化区,113.591642,23.529952
995,广州农商银行(神岗分理处),金融保险服务,金融保险服务机构,金融保险机构,广东省,广州市,从化区,113.529734,23.48575
996,广州农商银行(锦村分理处),金融保险服务,银行,农村商业银行,广东省,广州市,从化区,113.582224,23.516137
997,广州农商银行ATM(神岗分理处),金融保险服务,金融保险服务机构,金融保险机构,广东省,广州市,从化区,113.529763,23.486035
998,广州农商银行ATM(锦村分理处),金融保险服务,金融保险服务机构,金融保险机构,广东省,广州市,从化区,113.582139,23.516235
999,广州农商银行(欣荣宏分理处),金融保险服务,金融保险服务机构,金融保险机构,广东省,广州市,从化区,113.592104,23.531051
1000,中国农业银行金穗惠农通银行卡助农取款服务点,金融保险服务,金融保险服务机构,金融保险机构,广东省,广州市,从化区,113.519827,23.475589
1001,中国建设银行(广州中新知识城支行),金融保险服务,金融保险服务机构,金融保险机构,广东省,广州市,黄埔区,113.565471,23.27846
1002,广州农商银行(镇龙支行),金融保险服务,金融保险服务机构,金融保险机构,广东省,广州市,黄埔区,113.58076,23.277579
1003,中国邮政储蓄银行(镇龙储蓄所),金融保险服务,金融保险服务机构,金融保险机构,广东省,广州市,黄埔区,113.577183,23.277237
1004,广州夏信商务公司广州夏和银行,金融保险服务,金融保险服务机构,金融保险机构,广东省,广州市,黄埔区,113.585182,23.278225
1005,中国农业银行广州知识城支行,金融保险服务,金融保险服务机构,金融保险机构,广东省,广州市,黄埔区,113.543968,23.32987
1006,中国银行(腾飞园支行),金融保险服务,金融保险服务机构,金融保险机构,广东省,广州市,黄埔区,113.545034,23.330117
1007,中国建设银行(校园e银行),金融保险服务,金融保险服务机构,金融保险机构,广东省,广州市,黄埔区,113.567496,23.30364
1008,中国工商银行(广州知识城支行),金融保险服务,金融保险服务机构,金融保险机构,广东省,广州市,黄埔区,113.52088,23.353852
1009,广州农商银行(九佛支行),金融保险服务,金融保险服务机构,金融保险机构,广东省,广州市,黄埔区,113.519064,23.354686
1010,广州黄埔惠民村镇银行,金融保险服务,金融保险服务机构,金融保险机构,广东省,广州市,黄埔区,113.522223,23.35106
1011,广州农商银行(何棠下分理处),金融保险服务,金融保险服务机构,金融保险机构,广东省,广州市,黄埔区,113.533631,23.343293
1012,中国农业银行(鱼窝头支行),金融保险服务,金融保险服务机构,金融保险机构,广东省,广州市,南沙区,113.458163,22.852667
1013,中国邮政储蓄银行(鱼窝头支行),金融保险服务,金融保险服务机构,金融保险机构,广东省,广州市,南沙区,113.458775,22.850435
1014,广州农商银行(东涌支行),金融保险服务,金融保险服务机构,金融保险机构,广东省,广州市,南沙区,113.455289,22.885051
1015,广州农商银行(留东支行),金融保险服务,金融保险服务机构,金融保险机构,广东省,广州市,南沙区,113.502256,22.850558
1016,建设银行AMT,金融保险服务,金融保险服务机构,金融保险机构,广东省,广州市,南沙区,113.456507,22.848459
1017,中国农业银行(东涌支行),金融保险服务,金融保险服务机构,金融保险机构,广东省,广州市,南沙区,113.461514,22.884765
1018,中国银行(广州丰田支行),金融保险服务,金融保险服务机构,金融保险机构,广东省,广州市,南沙区,113.499301,22.835003
1019,广州农商银行(鱼窝头支行),金融保险服务,金融保险服务机构,金融保险机构,广东省,广州市,南沙区,113.458096,22.849073
1020,广发银行(黄阁支行),金融保险服务,金融保险服务机构,金融保险机构,广东省,广州市,南沙区,113.508112,22.825944
1021,中国建设银行(南沙东涌支行),金融保险服务,金融保险服务机构,金融保险机构,广东省,广州市,南沙区,113.458319,22.886576
1022,中国农业银行(广州黄阁支行),金融保险服务,金融保险服务机构,金融保险机构,广东省,广州市,南沙区,113.509057,22.825791
1023,广州农商银行(石排分理处),金融保险服务,金融保险服务机构,金融保险机构,广东省,广州市,南沙区,113.481743,22.870396
1024,中国工商银行(东涌支行),金融保险服务,金融保险服务机构,金融保险机构,广东省,广州市,南沙区,113.454999,22.888212
1025,中国银行(广州东涌支行),金融保险服务,金融保险服务机构,金融保险机构,广东省,广州市,南沙区,113.460675,22.885425
1026,中国农业银行石排(石牌)村农村金融服务站,金融保险服务,金融保险服务机构,金融保险机构,广东省,广州市,南沙区,113.481284,22.87016
1027,广州农商银行ATM(留东支行),金融保险服务,金融保险服务机构,金融保险机构,广东省,广州市,南沙区,113.502307,22.850608
1028,中国银行(广州黄阁支行),金融保险服务,金融保险服务机构,金融保险机构,广东省,广州市,南沙区,113.514649,22.825154
1029,广州农商银行(东深支行),金融保险服务,金融保险服务机构,金融保险机构,广东省,广州市,南沙区,113.45821,22.851944
1030,广州农村商行银行(南沙中心支行),金融保险服务,金融保险服务机构,金融保险机构,广东省,广州市,南沙区,113.45529,22.885052
1031,中国工商银行(南沙黄阁支行),金融保险服务,金融保险服务机构,金融保险机构,广东省,广州市,南沙区,113.513981,22.825019
1032,中国邮政储蓄银行(南沙黄阁营业所),金融保险服务,金融保险服务机构,金融保险机构,广东省,广州市,南沙区,113.507684,22.824813
1033,中国邮政储蓄银行(吉祥营业所),金融保险服务,金融保险服务机构,金融保险机构,广东省,广州市,南沙区,113.454898,22.885447
1034,中国建设银行(黄阁支行),金融保险服务,金融保险服务机构,金融保险机构,广东省,广州市,南沙区,113.514091,22.825124
1035,广州农商银行(黄阁支行),金融保险服务,金融保险服务机构,金融保险机构,广东省,广州市,南沙区,113.508146,22.826291
1036,广州农商银行(海傍支行),金融保险服务,金融保险服务机构,金融保险机构,广东省,广州市,番禺区,113.469221,22.927516
1037,中国农业银行ATM,金融保险服务,金融保险服务机构,金融保险机构,广东省,广州市,番禺区,113.488296,22.942413
1038,中国建设银行(亚运城支行),金融保险服务,金融保险服务机构,金融保险机构,广东省,广州市,番禺区,113.489161,22.954249
1039,广州农商银行(石楼支行),金融保险服务,金融保险服务机构,金融保险机构,广东省,广州市,番禺区,113.485626,22.9673
1040,广州农商银行(裕丰支行),金融保险服务,金融保险服务机构,金融保险机构,广东省,广州市,番禺区,113.493793,22.93566
1041,中国工商银行(广州亚运城支行),金融保险服务,金融保险服务机构,金融保险机构,广东省,广州市,番禺区,113.482163,22.944686
1042,中国工商银行(石楼支行),金融保险服务,金融保险服务机构,金融保险机构,广东省,广州市,番禺区,113.485047,22.967039
1043,中国银行(广州番禺石楼支行),金融保险服务,金融保险服务机构,金融保险机构,广东省,广州市,番禺区,113.489569,22.969331
1044,广州农商银行,金融保险服务,金融保险服务机构,金融保险机构,广东省,广州市,番禺区,113.460456,22.957495
1045,广州农商银行(前锋支行),金融保险服务,金融保险服务机构,金融保险机构,广东省,广州市,番禺区,113.448486,22.925931
1046,中国邮政储蓄银行(石楼支行),金融保险服务,金融保险服务机构,金融保险机构,广东省,广州市,番禺区,113.484547,22.971231
1047,广州农商银行(石基南浦分理处),金融保险服务,金融保险服务机构,金融保险机构,广东省,广州市,番禺区,113.468086,22.960573
1048,中国农业银行(广州番禺石楼支行)(装修中),金融保险服务,金融保险服务机构,金融保险机构,广东省,广州市,番禺区,113.488984,22.969089
1049,中国农业银行ATM(市莲路),金融保险服务,金融保险服务机构,金融保险机构,广东省,广州市,番禺区,113.457985,22.953713
1050,中国银行ATM(港前路),金融保险服务,金融保险服务机构,金融保险机构,广东省,广州市,番禺区,113.504494,22.966008
1051,广州农商银行(官涌分理处),金融保险服务,金融保险服务机构,金融保险机构,广东省,广州市,番禺区,113.456352,22.953416
1052,广州农商银行(石楼沙浦分理处),金融保险服务,金融保险服务机构,金融保险机构,广东省,广州市,番禺区,113.485359,22.96992
1053,广州农商银行(石岐支行),金融保险服务,金融保险服务机构,金融保险机构,广东省,广州市,番禺区,113.442035,22.953983
1054,交通银行(广东自贸试验区南沙分行),金融保险服务,金融保险服务机构,金融保险机构,广东省,广州市,南沙区,113.518388,22.781875
1055,广州农商银行(农场支行),金融保险服务,金融保险服务机构,金融保险机构,广东省,广州市,南沙区,113.496416,22.771867
1056,广州农商银行(庙贝分理处),金融保险服务,金融保险服务机构,金融保险机构,广东省,广州市,南沙区,113.447555,22.790614
1057,广州农商银行(兆丰支行),金融保险服务,金融保险服务机构,金融保险机构,广东省,广州市,南沙区,113.499571,22.757456
1058,广州农商银行(麒麟支行),金融保险服务,金融保险服务机构,金融保险机构,广东省,广州市,南沙区,113.498668,22.811429
1059,中国银行(广东自贸试验区南沙分行),金融保险服务,金融保险服务机构,金融保险机构,广东省,广州市,南沙区,113.513822,22.770096
1060,广州市农村商业银行ATM(兆丰支行),金融保险服务,金融保险服务机构,金融保险机构,广东省,广州市,南沙区,113.499621,22.757539
1061,广州农商银行(南沙横沥支行),金融保险服务,金融保险服务机构,金融保险机构,广东省,广州市,南沙区,113.49151,22.735196
1062,中国工商银行(温泉支行),金融保险服务,金融保险服务机构,金融保险机构,广东省,广州市,从化区,113.654223,23.645096
1063,中国工商银行ATM(广州从化温泉支行),金融保险服务,金融保险服务机构,金融保险机构,广东省,广州市,从化区,113.654275,23.645071
1064,中国建设银行ATM(温泉东路),金融保险服务,金融保险服务机构,金融保险机构,广东省,广州市,从化区,113.654216,23.644331
1065,广州农商银行(温泉分理处),金融保险服务,金融保险服务机构,金融保险机构,广东省,广州市,从化区,113.65808,23.640719
1066,中国工商银行ATM,金融保险服务,金融保险服务机构,金融保险机构,广东省,广州市,从化区,113.60986,23.524643
1067,中国农业银行ATM(长江一路),金融保险服务,金融保险服务机构,金融保险机构,广东省,广州市,从化区,113.608567,23.526428
1068,广州农商银行,金融保险服务,金融保险服务机构,金融保险机构,广东省,广州市,从化区,113.666816,23.603013
1069,广州银行(东城支行),金融保险服务,金融保险服务机构,金融保险机构,广东省,广州市,黄埔区,113.544122,23.106251
1070,广州银行ATM(东城支行),金融保险服务,金融保险服务机构,金融保险机构,广东省,广州市,黄埔区,113.544119,23.106239
1071,中国农业银行(南岗支行),金融保险服务,金融保险服务机构,金融保险机构,广东省,广州市,黄埔区,113.542398,23.095231
1072,中国建设银行(南岗支行),金融保险服务,金融保险服务机构,金融保险机构,广东省,广州市,黄埔区,113.535386,23.090982
1073,中国邮政储蓄银行(沙村营业所)(装修中),金融保险服务,金融保险服务机构,金融保险机构,广东省,广州市,增城区,113.550406,23.108298
1074,中国工商银行(东区支行),金融保险服务,金融保险服务机构,金融保险机构,广东省,广州市,黄埔区,113.544108,23.108885
1075,中国银行(广州开发区东区支行),金融保险服务,金融保险服务机构,金融保险机构,广东省,广州市,黄埔区,113.544344,23.105728
1076,交通银行(广州经济技术开发区东区支行),金融保险服务,金融保险服务机构,金融保险机构,广东省,广州市,黄埔区,113.542697,23.109719
1077,中国银行(南岗支行),金融保险服务,金融保险服务机构,金融保险机构,广东省,广州市,黄埔区,113.53197,23.089426
1078,中国建设银行(新世界支行),金融保险服务,金融保险服务机构,金融保险机构,广东省,广州市,增城区,113.571261,23.109788
1079,中国建设银行,金融保险服务,金融保险服务机构,金融保险机构,广东省,广州市,增城区,113.577532,23.107599
1080,中国农业银行(塘头支行),金融保险服务,金融保险服务机构,金融保险机构,广东省,广州市,黄埔区,113.532219,23.089413
1081,招商银行(开发大道社区支行),金融保险服务,金融保险服务机构,金融保险机构,广东省,广州市,黄埔区,113.526693,23.072073
1082,广州农商银行(南岗支行),金融保险服务,金融保险服务机构,金融保险机构,广东省,广州市,黄埔区,113.542111,23.095342
1083,招商银行(广州凤凰城支行),金融保险服务,金融保险服务机构,金融保险机构,广东省,广州市,增城区,113.577672,23.128456
1084,中国银行(广州开发区分行),金融保险服务,金融保险服务机构,金融保险机构,广东省,广州市,黄埔区,113.526263,23.064887
1085,中国邮政储蓄银行(黄埔东营业所),金融保险服务,金融保险服务机构,金融保险机构,广东省,广州市,黄埔区,113.535501,23.091032
1086,中国工商银行(广州沙涌支行),金融保险服务,金融保险服务机构,金融保险机构,广东省,广州市,黄埔区,113.52845,23.086112
1087,广州农商银行(沙村支行),金融保险服务,金融保险服务机构,金融保险机构,广东省,广州市,增城区,113.561649,23.11809
1088,中国工商银行(西区支行),金融保险服务,金融保险服务机构,金融保险机构,广东省,广州市,黄埔区,113.526114,23.063373
1089,广州农商银行(榕村支行),金融保险服务,金融保险服务机构,金融保险机构,广东省,广州市,黄埔区,113.544791,23.109157
1090,中国建设银行(广州西区支行),金融保险服务,金融保险服务机构,金融保险机构,广东省,广州市,黄埔区,113.526015,23.061132
1091,中国工商银行(新塘南安支行),金融保险服务,金融保险服务机构,金融保险机构,广东省,广州市,增城区,113.579387,23.121024
1092,中国银行(广州增城凤凰城支行),金融保险服务,金融保险服务机构,金融保险机构,广东省,广州市,增城区,113.575178,23.12663
1093,广州农村商业银行(沧联分理处),金融保险服务,金融保险服务机构,金融保险机构,广东省,广州市,黄埔区,113.554596,23.117943
1094,中国建设银行ATM,金融保险服务,金融保险服务机构,金融保险机构,广东省,广州市,增城区,113.577621,23.107559
1095,中国邮政储蓄银行(沙步支行),金融保险服务,金融保险服务机构,金融保险机构,广东省,广州市,黄埔区,113.528443,23.086139
1096,广州黄埔惠民村镇银行(沙步支行),金融保险服务,金融保险服务机构,金融保险机构,广东省,广州市,黄埔区,113.527157,23.084794
1097,广州农商银行ATM,金融保险服务,金融保险服务机构,金融保险机构,广东省,广州市,增城区,113.566434,23.1076
1098,中国工商银行(新塘碧桂园支行),金融保险服务,金融保险服务机构,金融保险机构,广东省,广州市,增城区,113.577207,23.125153
1099,银行贷款,金融保险服务,金融保险服务机构,金融保险机构,广东省,广州市,黄埔区,113.544084,23.106352
1100,中国建设银行ATM(东城雅苑西),金融保险服务,金融保险服务机构,金融保险机构,广东省,广州市,增城区,113.551267,23.109797
1101,广发银行(永和支行),金融保险服务,金融保险服务机构,金融保险机构,广东省,广州市,增城区,113.593017,23.174735
1102,中国工商银行(永和支行),金融保险服务,金融保险服务机构,金融保险机构,广东省,广州市,增城区,113.587042,23.178234
1103,中国建设银行(永和经济区支行),金融保险服务,金融保险服务机构,金融保险机构,广东省,广州市,黄埔区,113.562091,23.195425
1104,中国工商银行(永顺支行),金融保险服务,金融保险服务机构,金融保险机构,广东省,广州市,黄埔区,113.562377,23.195359
1105,中国建设银行(永宁支行),金融保险服务,金融保险服务机构,金融保险机构,广东省,广州市,增城区,113.590395,23.182181
1106,中国农业银行(增城永和支行),金融保险服务,金融保险服务机构,金融保险机构,广东省,广州市,增城区,113.59164,23.176882
1107,广州农商银行(永顺分理处),金融保险服务,金融保险服务机构,金融保险机构,广东省,广州市,黄埔区,113.558792,23.194513
1108,中国农业银行(碧桂园凤晴支行),金融保险服务,金融保险服务机构,金融保险机构,广东省,广州市,增城区,113.582984,23.15805
1109,中国邮政储蓄银行(永和支行),金融保险服务,金融保险服务机构,金融保险机构,广东省,广州市,增城区,113.588884,23.178424
1110,中国农业银行ATM(广州萝岗永和新安南路支行),金融保险服务,金融保险服务机构,金融保险机构,广东省,广州市,黄埔区,113.56288,23.19527
1111,中国建设银行(增城翡翠支行),金融保险服务,金融保险服务机构,金融保险机构,广东省,广州市,增城区,113.561534,23.134076
1112,中国建设银行(凤凰城支行),金融保险服务,金融保险服务机构,金融保险机构,广东省,广州市,增城区,113.588188,23.137475
1113,广州农商银行(星荟分理处),金融保险服务,金融保险服务机构,金融保险机构,广东省,广州市,增城区,113.5827,23.158128
1114,中国农业银行(永和经济区支行),金融保险服务,金融保险服务机构,金融保险机构,广东省,广州市,黄埔区,113.562933,23.195144
1115,广州农商银行(刘村支行),金融保险服务,金融保险服务机构,金融保险机构,广东省,广州市,黄埔区,113.527312,23.156328
1116,中国民生银行(广州凤凰城凤锦苑社区支行),金融保险服务,金融保险服务机构,金融保险机构,广东省,广州市,增城区,113.581877,23.149305
1117,中国工商银行(广州新塘支行),金融保险服务,金融保险服务机构,金融保险机构,广东省,广州市,增城区,113.592951,23.136823
1118,中国工商银行(广州新塘凤凰城支行),金融保险服务,金融保险服务机构,金融保险机构,广东省,广州市,增城区,113.597437,23.137573
1119,中国工商银行(新塘支行)-母婴室,金融保险服务,金融保险服务机构,金融保险机构,广东省,广州市,增城区,113.592945,23.136966
1120,中国银行(中海誉城支行),金融保险服务,金融保险服务机构,金融保险机构,广东省,广州市,黄埔区,113.527256,23.164072
1121,东莞银行(增城支行),金融保险服务,金融保险服务机构,金融保险机构,广东省,广州市,增城区,113.593736,23.136036
1122,兴业银行(凤凰城社区支行),金融保险服务,金融保险服务机构,金融保险机构,广东省,广州市,增城区,113.583669,23.160369
1123,平安银行(广州万科山景城社区支行),金融保险服务,金融保险服务机构,金融保险机构,广东省,广州市,黄埔区,113.525716,23.210958
1124,中信银行(凤凰城支行),金融保险服务,金融保险服务机构,金融保险机构,广东省,广州市,增城区,113.590897,23.137008
1125,广州农村商业银行ATM,金融保险服务,金融保险服务机构,金融保险机构,广东省,广州市,番禺区,113.542809,22.91494
1126,广州农商银行(江鸥分理处),金融保险服务,金融保险服务机构,金融保险机构,广东省,广州市,番禺区,113.54287,22.91486
1127,中国农业银行ATM(凤凰城酒店),金融保险服务,金融保险服务机构,金融保险机构,广东省,广州市,增城区,113.576682,23.134692
1128,广州农商银行ATM(永胜北街),金融保险服务,金融保险服务机构,金融保险机构,广东省,广州市,增城区,113.5918,23.179571
1129,广州农商银行(荷村分理处),金融保险服务,金融保险服务机构,金融保险机构,广东省,广州市,黄埔区,113.528904,23.14378
1130,中国工商银行(禾丰支行),金融保险服务,金融保险服务机构,金融保险机构,广东省,广州市,黄埔区,113.553871,23.212114
1131,广州农商银行ATM(荷村分理处),金融保险服务,金融保险服务机构,金融保险机构,广东省,广州市,黄埔区,113.528994,23.143791
1132,广州农商银行ATM(荷村大楼东),金融保险服务,金融保险服务机构,金融保险机构,广东省,广州市,黄埔区,113.534634,23.141867
1133,上海浦东发展银行(凤凰城小微支行),金融保险服务,金融保险服务机构,金融保险机构,广东省,广州市,增城区,113.58856,23.136935
1134,中国光大银行(凤凰城社区支行),金融保险服务,金融保险服务机构,金融保险机构,广东省,广州市,增城区,113.58789,23.136961
1135,广州农商银行(大冲支行),金融保险服务,金融保险服务机构,金融保险机构,广东省,广州市,南沙区,113.557535,22.768209
1136,中国银行ATM(金岭南路),金融保险服务,金融保险服务机构,金融保险机构,广东省,广州市,南沙区,113.556837,22.768196
1137,中国建设银行ATM,金融保险服务,金融保险服务机构,金融保险机构,广东省,广州市,南沙区,113.557126,22.767936
1138,中国工商银行(金岭路支行),金融保险服务,金融保险服务机构,金融保险机构,广东省,广州市,南沙区,113.54865,22.789934
1139,广州农商银行(广隆分理处),金融保险服务,金融保险服务机构,金融保险机构,广东省,广州市,南沙区,113.547905,22.778823
1140,广州农商银行(滨海支行),金融保险服务,金融保险服务机构,金融保险机构,广东省,广州市,南沙区,113.534116,22.776513
1141,顺德农商银行(广州南沙支行),金融保险服务,金融保险服务机构,金融保险机构,广东省,广州市,南沙区,113.530135,22.801958
1142,中国银行(广州南沙金洲支行),金融保险服务,金融保险服务机构,金融保险机构,广东省,广州市,南沙区,113.551117,22.794592
1143,中信银行(南沙分行),金融保险服务,金融保险服务机构,金融保险机构,广东省,广州市,南沙区,113.537267,22.798371
1144,中国农业银行(进港大道支行),金融保险服务,金融保险服务机构,金融保险机构,广东省,广州市,南沙区,113.550147,22.799517
1145,广州银行(广东自贸试验区南沙分行),金融保险服务,金融保险服务机构,金融保险机构,广东省,广州市,南沙区,113.530003,22.802006
1146,中国邮政储蓄银行(南沙支行),金融保险服务,金融保险服务机构,金融保险机构,广东省,广州市,南沙区,113.573756,22.745907
1147,广州银行(南沙滨海支行),金融保险服务,金融保险服务机构,金融保险机构,广东省,广州市,南沙区,113.533954,22.777794
1148,中国建设银行(广州南沙开发区支行),金融保险服务,金融保险服务机构,金融保险机构,广东省,广州市,南沙区,113.546974,22.800145
1149,平安银行(广东自贸试验区南沙分行营业部),金融保险服务,金融保险服务机构,金融保险机构,广东省,广州市,南沙区,113.531881,22.788847
1150,中国建设银行ATM(万达广场),金融保险服务,金融保险服务机构,金融保险机构,广东省,广州市,南沙区,113.533437,22.79435
1151,中国建设银行(广州南沙湾支行),金融保险服务,金融保险服务机构,金融保险机构,广东省,广州市,南沙区,113.577331,22.746492
1152,中国银行(广州大岭支行),金融保险服务,金融保险服务机构,金融保险机构,广东省,广州市,南沙区,113.575361,22.746283
1153,广州农商银行(裕兴支行),金融保险服务,金融保险服务机构,金融保险机构,广东省,广州市,南沙区,113.549725,22.800635
1154,招商银行(广东自贸试验区南沙分行),金融保险服务,金融保险服务机构,金融保险机构,广东省,广州市,南沙区,113.538581,22.799765
1155,中国光大银行(南沙金洲支行),金融保险服务,金融保险服务机构,金融保险机构,广东省,广州市,南沙区,113.545491,22.800027
1156,中国光大银行(南沙分行),金融保险服务,金融保险服务机构,金融保险机构,广东省,广州市,南沙区,113.534076,22.800101
1157,中国民生银行(南沙分行),金融保险服务,金融保险服务机构,金融保险机构,广东省,广州市,南沙区,113.53721,22.798175
1158,上海浦东发展银行(自由贸易试验区分行),金融保险服务,金融保险服务机构,金融保险机构,广东省,广州市,南沙区,113.533173,22.788842
1159,广州农商银行ATM(沙南分理处),金融保险服务,金融保险服务机构,金融保险机构,广东省,广州市,番禺区,113.539765,22.884962
1160,中国邮政储蓄银行(金洲营业所),金融保险服务,金融保险服务机构,金融保险机构,广东省,广州市,南沙区,113.54977,22.799609
1161,九江银行(暂停营业),金融保险服务,金融保险服务机构,金融保险机构,广东省,广州市,南沙区,113.531175,22.801174
1162,中国建设银行(凤凰大道支行),金融保险服务,金融保险服务机构,金融保险机构,广东省,广州市,南沙区,113.523256,22.791822
1163,长沙银行(南沙支行),金融保险服务,金融保险服务机构,金融保险机构,广东省,广州市,南沙区,113.534146,22.794937
1164,中国建设银行(广州环球中心支行),金融保险服务,金融保险服务机构,金融保险机构,广东省,广州市,南沙区,113.522257,22.800722
1165,广州农商银行ATM(创业大街),金融保险服务,金融保险服务机构,金融保险机构,广东省,广州市,南沙区,113.563326,22.754105
1166,华夏银行(南沙分行),金融保险服务,金融保险服务机构,金融保险机构,广东省,广州市,南沙区,113.533836,22.799515
1167,广州农商银行(金洲支行),金融保险服务,金融保险服务机构,金融保险机构,广东省,广州市,南沙区,113.555919,22.799377
1168,中国银行(广州中铁建支行),金融保险服务,金融保险服务机构,金融保险机构,广东省,广州市,南沙区,113.522342,22.802284
1169,中国工商银行(广州凤凰支行),金融保险服务,金融保险服务机构,金融保险机构,广东省,广州市,南沙区,113.526201,22.801741
1170,中国农业银行(广东自由贸易试验区南沙分行营业部),金融保险服务,金融保险服务机构,金融保险机构,广东省,广州市,南沙区,113.534158,22.795431
1171,九江银行(广东自贸试验区南沙支行),金融保险服务,金融保险服务机构,金融保险机构,广东省,广州市,南沙区,113.531687,22.788921
1172,东莞银行(自贸试验区南沙分行),金融保险服务,金融保险服务机构,金融保险机构,广东省,广州市,南沙区,113.531588,22.788905
1173,广东南粤银行(南沙分行),金融保险服务,金融保险服务机构,金融保险机构,广东省,广州市,南沙区,113.528422,22.789644
1174,中国邮政储蓄银行(进港大道支行),金融保险服务,金融保险服务机构,金融保险机构,广东省,广州市,南沙区,113.545865,22.7993
1175,广州农商银行(南沙大岭支行),金融保险服务,金融保险服务机构,金融保险机构,广东省,广州市,南沙区,113.575307,22.745656
1176,中国农业银行(南沙环球中心支行)(装修中),金融保险服务,金融保险服务机构,金融保险机构,广东省,广州市,南沙区,113.522321,22.801915
1177,广州农商银行(珠江分理处),金融保险服务,金融保险服务机构,金融保险机构,广东省,广州市,南沙区,113.546519,22.701379
1178,中国建设银行(南沙珠江街支行),金融保险服务,金融保险服务机构,金融保险机构,广东省,广州市,南沙区,113.542713,22.699025
1179,中国农业银行(华侨农场支行),金融保险服务,金融保险服务机构,金融保险机构,广东省,广州市,南沙区,113.546955,22.703052
1180,广州农商银行(五冲支行),金融保险服务,金融保险服务机构,金融保险机构,广东省,广州市,南沙区,113.54737,22.703699
1181,中国邮政储蓄银行(万顷沙营业所),金融保险服务,金融保险服务机构,金融保险机构,广东省,广州市,南沙区,113.551877,22.70683
1182,中国银行(万顷沙支行),金融保险服务,金融保险服务机构,金融保险机构,广东省,广州市,南沙区,113.544523,22.70248
1183,中国工商银行(珠江支行),金融保险服务,金融保险服务机构,金融保险机构,广东省,广州市,南沙区,113.542561,22.698851
1184,中国建设银行ATM(珠江西一路),金融保险服务,金融保险服务机构,金融保险机构,广东省,广州市,南沙区,113.542615,22.698915
1185,广州农村商业银行ATM,金融保险服务,金融保险服务机构,金融保险机构,广东省,广州市,南沙区,113.546571,22.701319
1186,广州农商银行(万顷沙支行),金融保险服务,金融保险服务机构,金融保险机构,广东省,广州市,南沙区,113.552274,22.709981
1187,创兴银行,金融保险服务,金融保险服务机构,金融保险机构,广东省,广州市,南沙区,113.531544,22.788976
1188,广发银行(广州南沙支行),金融保险服务,金融保险服务机构,金融保险机构,广东省,广州市,南沙区,113.538989,22.799731
1189,中国工商银行ATM(凤凰大道),金融保险服务,金融保险服务机构,金融保险机构,广东省,广州市,南沙区,113.526342,22.801706
1190,东莞农村商业银行(南沙分行),金融保险服务,金融保险服务机构,金融保险机构,广东省,广州市,南沙区,113.531303,22.801071
1191,南洋商业银行(广东自贸试验区南沙支行),金融保险服务,金融保险服务机构,金融保险机构,广东省,广州市,南沙区,113.538764,22.79973
1192,中国工商银行(广东自由贸易实验区南沙分行),金融保险服务,金融保险服务机构,金融保险机构,广东省,广州市,南沙区,113.531322,22.801107
1193,中国农业银行(南沙政务中心支行),金融保险服务,金融保险服务机构,金融保险机构,广东省,广州市,南沙区,113.526086,22.801681
1194,广州农商银行(南横分理处),金融保险服务,金融保险服务机构,金融保险机构,广东省,广州市,南沙区,113.593861,22.74917
1195,中国工商银行(南沙港前大道支行),金融保险服务,金融保险服务机构,金融保险机构,广东省,广州市,南沙区,113.60613,22.770799
1196,中国银行(广州南沙科技园区支行),金融保险服务,金融保险服务机构,金融保险机构,广东省,广州市,南沙区,113.606771,22.770171
1197,广东华兴银行(广东自贸试验区南沙支行),金融保险服务,金融保险服务机构,金融保险机构,广东省,广州市,南沙区,113.606497,22.76917
1198,中国银行(广州龙穴岛支行),金融保险服务,金融保险服务机构,金融保险机构,广东省,广州市,南沙区,113.673103,22.642619
1199,中国农业银行(广州新垦支行),金融保险服务,金融保险服务机构,金融保险机构,广东省,广州市,南沙区,113.606878,22.645128
1200,中国建设银行(广东自贸试验区分行),金融保险服务,金融保险服务机构,金融保险机构,广东省,广州市,南沙区,113.672839,22.64369
1201,广州银行ATM,金融保险服务,金融保险服务机构,金融保险机构,广东省,广州市,南沙区,113.608544,22.643095
1202,广州农商银行(新垦分理处),金融保险服务,金融保险服务机构,金融保险机构,广东省,广州市,南沙区,113.605915,22.64603
1203,广州银行农村金融服务站,金融保险服务,金融保险服务机构,金融保险机构,广东省,广州市,南沙区,113.608521,22.643132
1204,广州农村商业银行(新丰支行),金融保险服务,金融保险服务机构,金融保险机构,广东省,广州市,南沙区,113.60597,22.646038
1205,广州农商银行(十四冲支行),金融保险服务,金融保险服务机构,金融保险机构,广东省,广州市,南沙区,113.607028,22.644436
1206,中国银行ATM(广东自贸试验区南沙分行营业部),金融保险服务,金融保险服务机构,金融保险机构,广东省,广州市,南沙区,113.67329,22.64275
1207,广州农商银行ATM(新丰分理处),金融保险服务,金融保险服务机构,金融保险机构,广东省,广州市,南沙区,113.606877,22.645104
1208,中国农业银行(从化良口支行),金融保险服务,金融保险服务机构,金融保险机构,广东省,广州市,从化区,113.734818,23.718149
1209,广州从化柳银村镇银行(良口支行),金融保险服务,金融保险服务机构,金融保险机构,广东省,广州市,从化区,113.730801,23.713647
1210,中国邮政储蓄银行(从化良口营业所),金融保险服务,金融保险服务机构,金融保险机构,广东省,广州市,从化区,113.73437,23.717359
1211,中国邮政储蓄银行ATM(从化良口营业所),金融保险服务,金融保险服务机构,金融保险机构,广东省,广州市,从化区,113.734507,23.717353
1212,广州农商银行(良口分社),金融保险服务,金融保险服务机构,金融保险机构,广东省,广州市,从化区,113.734746,23.717981
1213,广州从化柳银村镇银行良口支行ATM,金融保险服务,金融保险服务机构,金融保险机构,广东省,广州市,从化区,113.730833,23.71372
1214,广州农商银行(良新支行),金融保险服务,金融保险服务机构,金融保险机构,广东省,广州市,从化区,113.733091,23.716921
1215,中国工商银行从化支行服务联系点,金融保险服务,金融保险服务机构,金融保险机构,广东省,广州市,从化区,113.733483,23.696653
1216,中国邮政储蓄银行(福和营业所),金融保险服务,金融保险服务机构,金融保险机构,广东省,广州市,增城区,113.63538,23.355206
1217,广州农商银行(福和支行),金融保险服务,金融保险服务机构,金融保险机构,广东省,广州市,增城区,113.633894,23.359225
1218,中国农业银行金穗惠农通惠农金融服务点,金融保险服务,金融保险服务机构,金融保险机构,广东省,广州市,增城区,113.633006,23.360904
1219,中国农业银行(广州增城福和支行),金融保险服务,金融保险服务机构,金融保险机构,广东省,广州市,增城区,113.632833,23.360219
1220,中国农业银行官塘村金融服务站,金融保险服务,金融保险服务机构,金融保险机构,广东省,广州市,增城区,113.618482,23.370795
1221,广州农商银行(公平支行),金融保险服务,金融保险服务机构,金融保险机构,广东省,广州市,增城区,113.652749,23.166821
1222,中国工商银行(沙埔支行),金融保险服务,金融保险服务机构,金融保险机构,广东省,广州市,增城区,113.653755,23.167441
1223,中国银行(沙埔开发区支行),金融保险服务,金融保险服务机构,金融保险机构,广东省,广州市,增城区,113.65372,23.167068
1224,广州农商银行(沙埔支行),金融保险服务,金融保险服务机构,金融保险机构,广东省,广州市,增城区,113.665032,23.163701
1225,中国工商银行(增城开发区支行),金融保险服务,金融保险服务机构,金融保险机构,广东省,广州市,增城区,113.629717,23.153543
1226,中国邮政储蓄银行(沙埔支行),金融保险服务,金融保险服务机构,金融保险机构,广东省,广州市,增城区,113.658984,23.161889
1227,平安银行(广州新塘支行),金融保险服务,金融保险服务机构,金融保险机构,广东省,广州市,增城区,113.620737,23.148903
1228,广州农商银行(白石支行),金融保险服务,金融保险服务机构,金融保险机构,广东省,广州市,增城区,113.651816,23.153203
1229,中国农业银行(沙埔支行),金融保险服务,金融保险服务机构,金融保险机构,广东省,广州市,增城区,113.658577,23.163068
1230,广州农商银行,金融保险服务,金融保险服务机构,金融保险机构,广东省,广州市,增城区,113.635403,23.149338
1231,上海浦东发展银行,金融保险服务,金融保险服务机构,金融保险机构,广东省,广州市,增城区,113.658616,23.201329
1232,银行无抵押贷款,金融保险服务,金融保险服务机构,金融保险机构,广东省,广州市,增城区,113.651026,23.153108
1233,上海浦东发展银行,金融保险服务,金融保险服务机构,金融保险机构,广东省,广州市,增城区,113.605098,23.195676
1234,中国农业银行(永新支行),金融保险服务,金融保险服务机构,金融保险机构,广东省,广州市,增城区,113.598991,23.137657
1235,中国农业银行(奥园康威支行),金融保险服务,金融保险服务机构,金融保险机构,广东省,广州市,增城区,113.633898,23.15436
1236,广州农商银行广州市农村金融服务站,金融保险服务,金融保险服务机构,金融保险机构,广东省,广州市,增城区,113.63552,23.138064
1237,广州农商银行ATM(沙宁路),金融保险服务,金融保险服务机构,金融保险机构,广东省,广州市,增城区,113.662702,23.17462
1238,广州农商银行(沙仙支行),金融保险服务,金融保险服务机构,金融保险机构,广东省,广州市,增城区,113.661103,23.158729
1239,广州农商银行(长风支行),金融保险服务,金融保险服务机构,金融保险机构,广东省,广州市,增城区,113.62081,23.147487
1240,中国银行(广州增城中新支行),金融保险服务,金融保险服务机构,金融保险机构,广东省,广州市,增城区,113.628139,23.280239
1241,中国农业银行(中新支行),金融保险服务,金融保险服务机构,金融保险机构,广东省,广州市,增城区,113.629746,23.280061
1242,中国工商银行(中新支行),金融保险服务,金融保险服务机构,金融保险机构,广东省,广州市,增城区,113.614195,23.285143
1243,中国邮政储蓄银行(中新镇营业厅),金融保险服务,金融保险服务机构,金融保险机构,广东省,广州市,增城区,113.618692,23.286065
1244,广州农商银行(宁西支行),金融保险服务,金融保险服务机构,金融保险机构,广东省,广州市,增城区,113.660024,23.217068
1245,广州农商银行(中福支行),金融保险服务,金融保险服务机构,金融保险机构,广东省,广州市,增城区,113.622468,23.29137
1246,华夏银行(教育路),金融保险服务,金融保险服务机构,金融保险机构,广东省,广州市,增城区,113.615042,23.28617
1247,广州银行(新塘支行),金融保险服务,金融保险服务机构,金融保险机构,广东省,广州市,增城区,113.623316,23.120738
1248,广发银行(新塘支行),金融保险服务,金融保险服务机构,金融保险机构,广东省,广州市,增城区,113.613397,23.122224
1249,广州农商银行(灌村分理处),金融保险服务,金融保险服务机构,金融保险机构,广东省,广州市,从化区,113.712707,23.580947
1250,广州银行ATM,金融保险服务,金融保险服务机构,金融保险机构,广东省,广州市,从化区,113.687765,23.577392
1251,招商银行,金融保险服务,金融保险服务机构,金融保险机构,广东省,广州市,从化区,113.679298,23.635852
1252,浦发银行(中山大学南方学院网点),金融保险服务,金融保险服务机构,金融保险机构,广东省,广州市,从化区,113.67916,23.635721
1253,农商银行ATM,金融保险服务,金融保险服务机构,金融保险机构,广东省,广州市,增城区,113.74205,23.387569
1254,中国工商银行(朱村支行),金融保险服务,金融保险服务机构,金融保险机构,广东省,广州市,增城区,113.694266,23.272664
1255,中国邮政储蓄银行(朱村储蓄所),金融保险服务,金融保险服务机构,金融保险机构,广东省,广州市,增城区,113.699187,23.273071
1256,广州农村商业银行(朱村支行),金融保险服务,金融保险服务机构,金融保险机构,广东省,广州市,增城区,113.697384,23.273486
1257,中国银行(朱村支行),金融保险服务,金融保险服务机构,金融保险机构,广东省,广州市,增城区,113.679256,23.274833
1258,广州农商银行,金融保险服务,金融保险服务机构,金融保险机构,广东省,广州市,增城区,113.708664,23.213537
1259,上海浦东发展银行,金融保险服务,金融保险服务机构,金融保险机构,广东省,广州市,增城区,113.699474,23.295198
1260,中国邮攻储蓄银行,金融保险服务,金融保险服务机构,金融保险机构,广东省,广州市,增城区,113.717831,23.170221
1261,广州农商银行(上境分理处),金融保险服务,金融保险服务机构,金融保险机构,广东省,广州市,增城区,113.717934,23.169866
1262,广州农商银行(仙村支行),金融保险服务,金融保险服务机构,金融保险机构,广东省,广州市,增城区,113.719261,23.164733
1263,广州增城长江村镇银行(仙村支行),金融保险服务,金融保险服务机构,金融保险机构,广东省,广州市,增城区,113.71777,23.18035
1264,中国农业银行(增城仙村支行),金融保险服务,金融保险服务机构,金融保险机构,广东省,广州市,增城区,113.720797,23.16898
1265,广州农商银行(箕岗支行),金融保险服务,金融保险服务机构,金融保险机构,广东省,广州市,增城区,113.718003,23.178933
1266,中国邮政储蓄银行ATM(仙村一路),金融保险服务,金融保险服务机构,金融保险机构,广东省,广州市,增城区,113.719516,23.163625
1267,广州农商银行,金融保险服务,金融保险服务机构,金融保险机构,广东省,广州市,增城区,113.738023,23.164087
1268,中国邮政储蓄银行广东省分行营运中心,金融保险服务,金融保险服务机构,金融保险机构,广东省,广州市,增城区,113.68105,23.175083
